$GNGGA,053823.000,4732.0512,N,01902.5429,E,1,7,1.39,104.1,M,41.1,M,,*45
$GPGSA,A,3,25,31,21,29,02,,,,,,,,1.66,1.39,0.90*0E
$GLGSA,A,3,82,83,,,,,,,,,,,1.66,1.39,0.90*1C
$GPGSV,3,1,10,29,81,004,44.6,25,56,122,34.7,31,49,267,43.5,21,30,198,30.9*7B
$GPGSV,3,2,10,26,27,303,26.7,02,24,048,29.9,05,20,085,,12,15,119,*75
$GPGSV,3,3,10,23,01,340,,16,01,300,*7A
$GLGSV,3,1,10,82,63,030,36.4,80,60,176,28.0,83,58,243,23.9,73,52,315,24.5*63
$GLGSV,3,2,10,81,13,046,,66,09,055,,65,07,000,,74,05,329,*6F
$GLGSV,3,3,10,84,03,230,,79,01,154,*65
$GNRMC,053823.000,A,4732.0512,N,01902.5429,E,0.244,91.54,110918,,,A*70
$GNVTG,91.54,T,,M,0.244,N,0.453,K,A*1A
$GNACCURACY,3.4*11
$GNGGA,053824.000,4732.0515,N,01902.5426,E,1,7,1.40,104.2,M,41.1,M,,*47
$GPGSA,A,3,25,31,21,29,02,,,,,,,,1.66,1.40,0.90*00
$GLGSA,A,3,82,83,,,,,,,,,,,1.66,1.40,0.90*12
$GPGSV,3,1,10,29,81,004,44.6,25,56,122,34.6,31,49,267,43.3,21,30,198,29.8*75
$GPGSV,3,2,10,26,27,303,26.5,02,24,048,30.0,05,20,085,,12,15,119,*76
$GPGSV,3,3,10,23,01,340,,16,01,300,*7A
$GLGSV,3,1,10,82,63,030,36.1,80,60,176,27.3,83,58,243,23.2,73,52,315,24.2*66
$GLGSV,3,2,10,81,13,046,,66,09,055,,65,07,000,,74,05,329,*6F
$GLGSV,3,3,10,84,03,230,,79,01,154,*65
$GNRMC,053824.000,A,4732.0515,N,01902.5426,E,0.104,297.54,110918,,,A*4C
$GNVTG,297.54,T,,M,0.104,N,0.192,K,A*21
$GNACCURACY,3.3*16
$GNGGA,053825.000,4732.0517,N,01902.5424,E,1,7,1.40,104.5,M,41.1,M,,*41
$GPGSA,A,3,25,31,21,29,02,,,,,,,,1.66,1.40,0.90*00
$GLGSA,A,3,82,83,,,,,,,,,,,1.66,1.40,0.90*12
$GPGSV,3,1,10,29,81,005,44.4,25,56,122,33.0,31,49,267,42.8,21,30,198,28.7*73
$GPGSV,3,2,10,26,27,303,26.2,02,24,048,29.8,05,20,085,,12,15,119,*71
$GPGSV,3,3,10,23,01,340,,16,01,300,*7A
$GLGSV,3,1,10,82,63,030,36.2,80,60,176,26.3,83,58,243,23.9,73,52,315,24.0*6D
$GLGSV,3,2,10,81,13,046,,66,09,055,,65,07,000,,74,05,329,*6F
$GLGSV,3,3,10,84,03,230,,79,01,154,*65
$GNRMC,053825.000,A,4732.0517,N,01902.5424,E,0.241,318.10,110918,,,A*49
$GNVTG,318.10,T,,M,0.241,N,0.447,K,A*28
$GNACCURACY,3.2*17
$GNGGA,053826.000,4732.0518,N,01902.5424,E,1,7,1.39,103.9,M,41.1,M,,*48
$GPGSA,A,3,25,31,21,29,02,,,,,,,,1.66,1.39,0.90*0E
$GLGSA,A,3,82,83,,,,,,,,,,,1.66,1.39,0.90*1C
$GPGSV,3,1,10,29,81,005,44.3,25,56,122,32.4,31,49,267,43.3,21,30,198,32.8*7F
$GPGSV,3,2,10,26,27,303,26.4,02,24,048,29.9,05,20,085,,12,15,119,*76
$GPGSV,3,3,10,23,01,340,,16,01,300,*7A
$GLGSV,3,1,10,82,63,030,36.7,80,60,176,25.8,83,58,243,23.7,73,52,315,24.0*6E
$GLGSV,3,2,10,81,13,046,,66,09,055,,65,07,000,,74,05,329,*6F
$GLGSV,3,3,10,84,03,230,,79,01,154,*65
$GNRMC,053826.000,A,4732.0518,N,01902.5424,E,0.174,10.17,110918,,,A*7C
$GNVTG,10.17,T,,M,0.174,N,0.323,K,A*14
$GNACCURACY,3.0*15
$GNGGA,053827.000,4732.0521,N,01902.5423,E,1,7,1.40,103.8,M,41.1,M,,*4B
$GPGSA,A,3,25,31,21,29,02,,,,,,,,1.66,1.40,0.90*00
$GLGSA,A,3,82,83,,,,,,,,,,,1.66,1.40,0.90*12
$GPGSV,3,1,10,29,81,005,44.1,25,56,122,31.9,31,49,266,43.3,21,30,198,31.6*7F
$GPGSV,3,2,10,26,27,303,25.8,02,24,048,29.9,05,20,085,,12,15,119,*79
$GPGSV,3,3,10,23,01,340,,16,01,300,*7A
$GLGSV,3,1,10,82,63,030,36.8,80,60,176,26.3,83,58,243,23.4,73,52,315,27.2*6B
$GLGSV,3,2,10,81,13,046,,66,09,055,,65,07,000,,74,05,329,*6F
$GLGSV,3,3,10,84,03,230,,79,01,154,*65
$GNRMC,053827.000,A,4732.0521,N,01902.5423,E,0.418,318.97,110918,,,A*4C
$GNVTG,318.97,T,,M,0.418,N,0.774,K,A*2E
$GNACCURACY,3.0*15
$GNGGA,053828.000,4732.0520,N,01902.5424,E,1,7,1.39,103.8,M,41.1,M,,*4C
$GPGSA,A,3,25,31,21,29,02,,,,,,,,1.66,1.39,0.90*0E
$GLGSA,A,3,82,83,,,,,,,,,,,1.66,1.39,0.90*1C
$GPGSV,3,1,10,29,81,005,44.2,25,56,122,34.7,31,49,266,43.6,21,30,198,31.1*75
$GPGSV,3,2,10,26,27,303,25.7,02,24,048,29.6,05,20,085,,12,15,119,*79
$GPGSV,3,3,10,23,01,340,,16,01,300,*7A
$GLGSV,3,1,10,82,63,030,37.2,80,60,176,25.9,83,58,243,24.1,73,52,315,26.5*6D
$GLGSV,3,2,10,81,13,046,,66,09,055,,65,07,000,,74,05,329,*6F
$GLGSV,3,3,10,84,03,230,,79,01,154,*65
$GNRMC,053828.000,A,4732.0520,N,01902.5424,E,0.150,309.27,110918,,,A*47
$GNVTG,309.27,T,,M,0.150,N,0.279,K,A*24
$GNACCURACY,2.9*1D
$GNGGA,053829.000,4732.0521,N,01902.5424,E,1,7,1.39,103.8,M,41.1,M,,*4C
$GPGSA,A,3,25,31,21,29,02,,,,,,,,1.66,1.39,0.90*0E
$GLGSA,A,3,82,83,,,,,,,,,,,1.66,1.39,0.90*1C
$GPGSV,3,1,10,29,81,005,44.1,25,56,122,35.2,31,49,266,43.4,21,30,198,30.5*75
$GPGSV,3,2,10,26,27,303,25.4,02,24,048,29.1,05,20,085,,12,15,119,*7D
$GPGSV,3,3,10,23,01,340,,16,01,300,*7A
$GLGSV,3,1,10,82,63,030,36.8,80,60,176,25.8,83,58,243,23.8,73,52,315,26.6*6A
$GLGSV,3,2,10,81,13,046,,66,09,055,,65,07,000,,74,05,329,*6F
$GLGSV,3,3,10,84,03,230,,79,01,154,*65
$GNRMC,053829.000,A,4732.0521,N,01902.5424,E,0.183,277.39,110918,,,A*4E
$GNVTG,277.39,T,,M,0.183,N,0.339,K,A*28
$GNACCURACY,2.8*1C
$GNGGA,053830.000,4732.0521,N,01902.5423,E,1,7,1.40,103.7,M,41.1,M,,*42
$GPGSA,A,3,25,31,21,29,02,,,,,,,,1.66,1.40,0.90*00
$GLGSA,A,3,82,83,,,,,,,,,,,1.66,1.40,0.90*12
$GPGSV,3,1,10,29,81,005,44.1,25,56,122,35.2,31,49,266,43.7,21,30,198,30.3*70
$GPGSV,3,2,10,26,27,303,24.8,02,24,048,29.0,05,20,085,,12,15,119,*71
$GPGSV,3,3,10,23,01,340,,16,01,300,*7A
$GLGSV,3,1,10,82,63,030,36.8,80,60,176,25.4,83,58,243,24.2,73,52,315,27.2*6E
$GLGSV,3,2,10,81,13,046,,66,09,055,,65,07,000,,74,05,329,*6F
$GLGSV,3,3,10,84,03,230,,79,01,154,*65
$GNRMC,053830.000,A,4732.0521,N,01902.5423,E,0.266,228.81,110918,,,A*40
$GNVTG,228.81,T,,M,0.266,N,0.492,K,A*2F
$GNACCURACY,2.8*1C
$GNGGA,053831.000,4732.0516,N,01902.5429,E,1,8,1.09,105.4,M,41.1,M,,*4A
$GPGSA,A,3,25,31,21,29,26,02,,,,,,,1.40,1.09,0.87*0B
$GLGSA,A,3,82,83,,,,,,,,,,,1.40,1.09,0.87*1D
$GPGSV,3,1,10,29,81,005,43.7,25,56,122,34.0,31,49,266,43.3,21,30,198,30.8*7D
$GPGSV,3,2,10,26,27,303,24.8,02,24,048,29.2,05,20,085,,12,15,119,*73
$GPGSV,3,3,10,23,01,340,,16,01,300,*7A
$GLGSV,3,1,10,82,63,030,36.8,80,60,176,24.5,83,58,243,24.2,73,52,315,27.5*69
$GLGSV,3,2,10,81,13,046,,66,09,055,,65,07,000,,74,05,329,*6F
$GLGSV,3,3,10,84,03,230,,79,01,154,*65
$GNRMC,053831.000,A,4732.0516,N,01902.5429,E,0.171,172.12,110918,,,A*4C
$GNVTG,172.12,T,,M,0.171,N,0.316,K,A*27
$GNACCURACY,2.7*13
$GNGGA,053832.000,4732.0511,N,01902.5434,E,1,8,1.09,107.1,M,41.1,M,,*45
$GPGSA,A,3,25,31,21,29,26,02,,,,,,,1.40,1.09,0.87*0B
$GLGSA,A,3,82,83,,,,,,,,,,,1.40,1.09,0.87*1D
$GPGSV,3,1,10,29,81,005,43.4,25,56,122,33.1,31,49,266,43.5,21,30,198,31.4*73
$GPGSV,3,2,10,26,27,303,25.0,02,24,048,28.9,05,20,085,,12,15,119,*70
$GPGSV,3,3,10,23,01,340,,16,01,300,*7A
$GLGSV,3,1,10,82,63,030,36.4,80,60,176,23.6,83,58,243,23.8,73,52,315,27.8*61
$GLGSV,3,2,10,81,13,046,,66,09,055,,65,07,000,,74,05,329,*6F
$GLGSV,3,3,10,84,03,230,,79,01,154,*65
$GNRMC,053832.000,A,4732.0511,N,01902.5434,E,0.159,187.30,110918,,,A*44
$GNVTG,187.30,T,,M,0.159,N,0.295,K,A*2D
$GNACCURACY,2.6*12
$GNGGA,053833.000,4732.0511,N,01902.5434,E,1,8,1.09,107.0,M,41.1,M,,*45
$GPGSA,A,3,25,31,21,29,26,02,,,,,,,1.40,1.09,0.87*0B
$GLGSA,A,3,82,83,,,,,,,,,,,1.40,1.09,0.87*1D
$GPGSV,3,1,10,29,81,005,43.2,25,56,122,33.6,31,49,266,43.4,21,30,198,30.6*70
$GPGSV,3,2,10,26,27,303,24.7,02,24,048,28.6,05,20,085,,12,15,119,*79
$GPGSV,3,3,10,23,01,340,,16,01,300,*7A
$GLGSV,3,1,10,82,63,030,36.9,80,60,176,23.7,83,58,243,23.7,73,52,315,27.6*6C
$GLGSV,3,2,10,81,13,046,,66,09,055,,65,07,000,,74,05,329,*6F
$GLGSV,3,3,10,84,03,230,,79,01,154,*65
$GNRMC,053833.000,A,4732.0511,N,01902.5434,E,0.125,194.75,110918,,,A*4D
$GNVTG,194.75,T,,M,0.125,N,0.232,K,A*28
$GNACCURACY,2.7*13
$GNGGA,053834.000,4732.0511,N,01902.5435,E,1,8,1.09,106.9,M,41.1,M,,*4B
$GPGSA,A,3,25,31,21,29,26,02,,,,,,,1.40,1.09,0.87*0B
$GLGSA,A,3,82,83,,,,,,,,,,,1.40,1.09,0.87*1D
$GPGSV,3,1,10,29,81,005,42.8,25,56,122,36.6,31,49,266,43.8,21,30,198,30.4*70
$GPGSV,3,2,10,26,27,303,24.1,02,24,048,28.0,05,20,085,,12,15,119,*79
$GPGSV,3,3,10,23,01,340,,16,01,300,*7A
$GLGSV,3,1,10,82,63,030,36.8,80,60,176,24.2,83,58,243,24.0,73,52,315,27.6*6F
$GLGSV,3,2,10,81,13,046,,66,09,055,,65,07,000,,74,05,329,*6F
$GLGSV,3,3,10,84,03,230,,79,01,154,*65
$GNRMC,053834.000,A,4732.0511,N,01902.5435,E,0.201,138.15,110918,,,A*4E
$GNVTG,138.15,T,,M,0.201,N,0.372,K,A*28
$GNACCURACY,2.7*13
$GNGGA,053835.000,4732.0512,N,01902.5436,E,1,8,1.09,107.0,M,41.1,M,,*42
$GPGSA,A,3,25,31,21,29,26,02,,,,,,,1.39,1.09,0.87*05
$GLGSA,A,3,82,83,,,,,,,,,,,1.39,1.09,0.87*13
$GPGSV,3,1,10,29,81,005,42.9,25,56,122,35.8,31,49,266,43.8,21,30,198,30.1*79
$GPGSV,3,2,10,26,27,303,24.2,02,24,048,27.5,05,20,085,,12,15,119,*70
$GPGSV,3,3,10,23,01,340,,16,01,300,*7A
$GLGSV,3,1,10,82,63,030,37.1,80,60,176,28.4,83,58,243,24.2,73,52,315,28.1*67
$GLGSV,3,2,10,81,13,046,18.7,66,09,055,,65,07,000,,74,05,329,*7F
$GLGSV,3,3,10,84,03,230,,79,01,154,*65
$GNRMC,053835.000,A,4732.0512,N,01902.5436,E,0.229,99.09,110918,,,A*72
$GNVTG,99.09,T,,M,0.229,N,0.424,K,A*11
$GNACCURACY,2.7*13
$GNGGA,053836.000,4732.0513,N,01902.5435,E,1,8,1.09,107.0,M,41.1,M,,*43
$GPGSA,A,3,25,31,21,29,26,02,,,,,,,1.40,1.09,0.87*0B
$GLGSA,A,3,82,83,,,,,,,,,,,1.40,1.09,0.87*1D
$GPGSV,3,1,10,29,81,005,43.1,25,56,122,34.6,31,49,266,43.6,21,30,198,30.0*70
$GPGSV,3,2,10,26,27,303,23.6,02,24,048,26.7,05,20,085,,12,15,119,*70
$GPGSV,3,3,10,23,01,340,,16,01,300,*7A
$GLGSV,3,1,10,82,63,030,37.2,80,60,176,27.3,83,58,243,23.8,73,52,315,28.9*69
$GLGSV,3,2,10,81,13,046,18.7,66,09,055,,65,07,000,,74,05,329,*7F
$GLGSV,3,3,10,84,03,230,,79,01,154,*65
$GNRMC,053836.000,A,4732.0513,N,01902.5435,E,0.069,344.82,110918,,,A*45
$GNVTG,344.82,T,,M,0.069,N,0.128,K,A*2E
$GNACCURACY,2.7*13
$GNGGA,053837.000,4732.0514,N,01902.5434,E,1,8,1.09,106.8,M,41.1,M,,*4D
$GPGSA,A,3,25,31,21,29,26,02,,,,,,,1.40,1.09,0.87*0B
$GLGSA,A,3,82,83,,,,,,,,,,,1.40,1.09,0.87*1D
$GPGSV,3,1,10,29,81,005,43.2,25,56,122,33.3,31,49,266,43.2,21,30,198,29.4*79
$GPGSV,3,2,10,26,27,303,23.4,02,24,048,27.2,05,20,085,,12,15,119,*76
$GPGSV,3,3,10,23,01,340,,16,01,300,*7A
$GLGSV,3,1,10,82,63,030,37.1,80,60,176,26.9,83,58,243,27.3,73,52,315,32.7*6B
$GLGSV,3,2,10,81,13,046,18.7,66,09,055,,65,07,000,,74,05,329,*7F
$GLGSV,3,3,10,84,03,230,,79,01,154,*65
$GNRMC,053837.000,A,4732.0514,N,01902.5434,E,0.272,281.58,110918,,,A*45
$GNVTG,281.58,T,,M,0.272,N,0.504,K,A*23
$GNACCURACY,2.7*13
$GNGGA,053838.000,4732.0518,N,01902.5432,E,1,8,1.09,107.0,M,41.1,M,,*41
$GPGSA,A,3,25,31,21,29,26,02,,,,,,,1.39,1.09,0.87*05
$GLGSA,A,3,82,83,,,,,,,,,,,1.39,1.09,0.87*13
$GPGSV,3,1,10,29,81,005,43.8,25,56,122,32.2,31,49,266,41.9,21,30,198,32.9*7D
$GPGSV,3,2,10,26,27,303,22.8,02,24,048,33.3,05,20,085,25.6,12,15,119,*60
$GPGSV,3,3,10,23,01,340,,16,01,300,*7A
$GLGSV,3,1,10,82,63,030,37.4,80,60,176,27.0,83,58,243,26.6,73,52,315,32.2*67
$GLGSV,3,2,10,81,13,046,18.6,66,09,055,,65,07,000,,74,05,329,*7E
$GLGSV,3,3,10,84,03,230,,79,01,154,*65
$GNRMC,053838.000,A,4732.0518,N,01902.5432,E,0.193,307.98,110918,,,A*4F
$GNVTG,307.98,T,,M,0.193,N,0.358,K,A*23
$GNACCURACY,2.7*13
$GNGGA,053839.000,4732.0522,N,01902.5426,E,1,8,1.09,106.9,M,41.1,M,,*44
$GPGSA,A,3,25,31,21,29,26,02,,,,,,,1.40,1.09,0.87*0B
$GLGSA,A,3,82,83,,,,,,,,,,,1.40,1.09,0.87*1D
$GPGSV,3,1,10,29,81,005,44.0,25,56,122,37.1,31,49,266,41.4,21,30,198,39.0*7B
$GPGSV,3,2,10,26,27,303,21.8,02,24,048,31.8,05,20,085,19.6,12,15,119,*65
$GPGSV,3,3,10,23,01,340,,16,01,300,*7A
$GLGSV,3,1,10,82,63,030,37.1,80,60,176,25.9,83,58,243,25.7,73,52,315,30.0*6B
$GLGSV,3,2,10,81,13,046,18.5,66,09,055,,65,07,000,,74,05,329,*7D
$GLGSV,3,3,10,84,03,230,,79,01,154,*65
$GNRMC,053839.000,A,4732.0522,N,01902.5426,E,0.279,299.85,110918,,,A*4F
$GNVTG,299.85,T,,M,0.279,N,0.517,K,A*23
$GNACCURACY,2.6*12
$GNGGA,053840.000,4732.0522,N,01902.5425,E,1,8,1.09,106.9,M,41.1,M,,*49
$GPGSA,A,3,25,31,21,29,26,02,,,,,,,1.39,1.09,0.87*05
$GLGSA,A,3,82,83,,,,,,,,,,,1.39,1.09,0.87*13
$GPGSV,3,1,10,29,81,005,44.0,25,56,122,36.1,31,49,266,40.0,21,30,198,36.8*78
$GPGSV,3,2,10,26,27,303,34.2,02,24,048,32.6,05,20,085,19.5,12,15,119,*65
$GPGSV,3,3,10,23,01,340,,16,01,300,*7A
$GLGSV,3,1,10,82,63,030,37.1,80,60,176,25.3,83,58,243,25.6,73,52,315,28.0*69
$GLGSV,3,2,10,81,13,046,18.4,66,09,055,,65,07,000,,74,05,329,*7C
$GLGSV,3,3,10,84,03,230,,79,01,154,*65
$GNRMC,053840.000,A,4732.0522,N,01902.5425,E,0.310,290.68,110918,,,A*46
$GNVTG,290.68,T,,M,0.310,N,0.574,K,A*22
$GNACCURACY,2.6*12
$GNGGA,053841.000,4732.0522,N,01902.5425,E,1,8,1.09,106.8,M,41.1,M,,*49
$GPGSA,A,3,25,31,21,29,26,02,,,,,,,1.39,1.09,0.87*05
$GLGSA,A,3,82,83,,,,,,,,,,,1.39,1.09,0.87*13
$GPGSV,3,1,10,29,81,005,43.0,25,56,122,33.4,31,49,266,29.7,21,30,198,36.4*7B
$GPGSV,3,2,10,26,27,303,34.2,02,24,048,32.6,05,20,085,21.0,12,15,119,*6B
$GPGSV,3,3,10,23,01,340,,16,01,300,*7A
$GLGSV,3,1,10,82,63,030,36.4,80,60,176,25.0,83,58,243,25.5,73,52,315,27.0*62
$GLGSV,3,2,10,81,13,046,18.6,66,09,055,,65,07,000,,74,05,329,*7E
$GLGSV,3,3,10,84,03,230,,79,01,154,*65
$GNRMC,053841.000,A,4732.0522,N,01902.5425,E,0.330,284.27,110918,,,A*4B
$GNVTG,284.27,T,,M,0.330,N,0.612,K,A*2D
$GNACCURACY,2.6*12
$GNGGA,053842.000,4732.0521,N,01902.5422,E,1,8,1.09,106.7,M,41.1,M,,*41
$GPGSA,A,3,25,31,21,29,26,02,,,,,,,1.39,1.09,0.87*05
$GLGSA,A,3,82,83,,,,,,,,,,,1.39,1.09,0.87*13
$GPGSV,3,1,10,29,81,005,42.5,25,56,122,39.2,31,49,266,38.3,21,30,198,36.1*72
$GPGSV,3,2,10,26,27,303,33.8,02,24,048,33.1,05,20,085,15.8,12,15,119,*6F
$GPGSV,3,3,10,23,01,340,,16,01,300,*7A
$GLGSV,3,1,10,82,63,030,36.4,80,60,176,29.2,83,58,243,28.8,73,52,315,31.8*63
$GLGSV,3,2,10,81,13,046,18.7,66,09,055,,65,07,000,,74,05,329,*7F
$GLGSV,3,3,10,84,03,230,,79,01,154,*65
$GNRMC,053842.000,A,4732.0521,N,01902.5422,E,0.366,239.78,110918,,,A*43
$GNVTG,239.78,T,,M,0.366,N,0.677,K,A*21
$GNACCURACY,2.6*12
$GNGGA,053843.000,4732.0520,N,01902.5422,E,1,8,1.09,106.7,M,41.1,M,,*41
$GPGSA,A,3,25,31,21,29,26,02,,,,,,,1.39,1.09,0.87*05
$GLGSA,A,3,82,83,,,,,,,,,,,1.39,1.09,0.87*13
$GPGSV,3,1,10,29,81,005,42.5,25,56,122,30.9,31,49,266,37.7,21,30,198,33.2*7D
$GPGSV,3,2,10,26,27,303,34.1,02,24,048,34.2,05,20,085,15.9,12,15,119,*64
$GPGSV,3,3,10,23,01,340,,16,01,300,*7A
$GLGSV,3,1,10,82,63,030,35.1,80,60,176,28.5,83,58,243,27.3,73,52,315,32.1*6D
$GLGSV,3,2,10,81,13,046,17.7,66,09,055,,65,07,000,,74,05,329,*70
$GLGSV,3,3,10,84,03,230,,79,01,154,*65
$GNRMC,053843.000,A,4732.0520,N,01902.5422,E,0.391,218.67,110918,,,A*46
$GNVTG,218.67,T,,M,0.391,N,0.724,K,A*23
$GNACCURACY,2.6*12
$GNGGA,053844.000,4732.0519,N,01902.5421,E,1,8,1.09,106.7,M,41.1,M,,*4F
$GPGSA,A,3,25,31,21,29,26,02,,,,,,,1.40,1.09,0.87*0B
$GLGSA,A,3,82,83,,,,,,,,,,,1.40,1.09,0.87*1D
$GPGSV,3,1,10,29,81,005,43.4,25,56,122,31.9,31,49,266,41.8,21,30,198,33.5*75
$GPGSV,3,2,10,26,27,303,34.3,02,24,048,34.2,05,20,085,16.6,12,15,119,*6A
$GPGSV,3,3,10,23,01,340,,16,01,300,*7A
$GLGSV,3,1,10,82,63,030,35.2,80,60,176,28.5,83,58,243,26.2,73,52,315,36.0*6B
$GLGSV,3,2,10,81,13,046,16.9,66,09,055,,65,07,000,,74,05,329,*7F
$GLGSV,3,3,10,84,03,230,,79,01,154,*65
$GNRMC,053844.000,A,4732.0519,N,01902.5421,E,0.426,211.51,110918,,,A*4F
$GNVTG,211.51,T,,M,0.426,N,0.789,K,A*23
$GNACCURACY,2.6*12
$GNGGA,053845.000,4732.0522,N,01902.5422,E,1,8,1.09,106.7,M,41.1,M,,*45
$GPGSA,A,3,25,31,21,29,26,02,,,,,,,1.40,1.09,0.87*0B
$GLGSA,A,3,82,83,,,,,,,,,,,1.40,1.09,0.87*1D
$GPGSV,3,1,10,29,81,005,43.9,25,56,122,35.4,31,49,266,29.6,21,30,198,32.3*76
$GPGSV,3,2,10,26,27,303,33.2,02,24,048,34.6,05,20,085,16.5,12,15,119,*6B
$GPGSV,3,3,10,23,01,340,,16,01,300,*7A
$GLGSV,3,1,10,82,63,030,34.1,80,60,176,27.0,83,58,243,24.9,73,52,315,35.9*60
$GLGSV,3,2,10,81,13,046,16.5,66,09,055,,65,07,000,,74,05,329,*73
$GLGSV,3,3,10,84,03,230,,79,01,154,*65
$GNRMC,053845.000,A,4732.0522,N,01902.5422,E,0.421,11.37,110918,,,A*70
$GNVTG,11.37,T,,M,0.421,N,0.780,K,A*1F
$GNACCURACY,2.7*13
$GNGGA,053846.000,4732.0524,N,01902.5421,E,1,8,1.09,106.6,M,41.1,M,,*42
$GPGSA,A,3,25,31,21,29,26,02,,,,,,,1.40,1.09,0.87*0B
$GLGSA,A,3,82,83,,,,,,,,,,,1.40,1.09,0.87*1D
$GPGSV,3,1,10,29,81,005,44.2,25,56,122,35.9,31,49,266,28.6,21,30,198,29.7*78
$GPGSV,3,2,10,26,27,303,31.4,02,24,048,34.1,05,20,085,16.7,12,15,119,*6A
$GPGSV,3,3,10,23,01,340,,16,01,300,*7A
$GLGSV,3,1,10,82,63,030,33.1,80,60,176,27.2,83,58,243,25.3,73,52,315,35.7*60
$GLGSV,3,2,10,81,13,046,16.6,66,09,055,,65,07,000,,74,05,329,*70
$GLGSV,3,3,10,84,03,230,,79,01,154,*65
$GNRMC,053846.000,A,4732.0524,N,01902.5421,E,0.425,323.55,110918,,,A*44
$GNVTG,323.55,T,,M,0.425,N,0.787,K,A*2A
$GNACCURACY,2.7*13
$GNGGA,053847.000,4732.0526,N,01902.5422,E,1,8,1.09,106.6,M,41.1,M,,*42
$GPGSA,A,3,25,31,21,29,26,02,,,,,,,1.40,1.09,0.87*0B
$GLGSA,A,3,82,83,,,,,,,,,,,1.40,1.09,0.87*1D
$GPGSV,3,1,10,29,81,005,43.7,25,56,122,42.8,31,49,266,29.0,21,30,198,33.6*76
$GPGSV,3,2,10,26,27,303,31.0,02,24,048,33.4,05,20,085,15.3,12,15,119,*6B
$GPGSV,3,3,10,23,01,340,,16,01,300,*7A
$GLGSV,3,1,10,82,63,030,33.9,80,60,176,26.5,83,58,243,25.7,73,52,315,33.7*6C
$GLGSV,3,2,10,81,13,046,16.6,66,09,055,,65,07,000,,74,05,329,*70
$GLGSV,3,3,10,84,03,230,,79,01,154,*65
$GNRMC,053847.000,A,4732.0526,N,01902.5422,E,0.426,13.63,110918,,,A*72
$GNVTG,13.63,T,,M,0.426,N,0.789,K,A*12
$GNACCURACY,2.7*13
$GNGGA,053848.000,4732.0527,N,01902.5423,E,1,8,1.09,106.6,M,41.1,M,,*4D
$GPGSA,A,3,25,31,21,29,26,02,,,,,,,1.40,1.09,0.87*0B
$GLGSA,A,3,82,83,,,,,,,,,,,1.40,1.09,0.87*1D
$GPGSV,3,1,10,29,81,005,43.5,25,56,122,43.1,31,49,266,32.7,21,30,198,33.2*75
$GPGSV,3,2,10,26,27,303,30.5,02,24,048,32.6,05,20,085,14.4,12,15,119,*6A
$GPGSV,3,3,10,23,01,340,,16,01,300,*7A
$GLGSV,3,1,10,82,63,030,34.2,80,60,176,26.8,83,58,243,29.1,73,52,315,32.7*66
$GLGSV,3,2,10,81,13,046,15.9,66,09,055,,65,07,000,,74,05,329,*7C
$GLGSV,3,3,10,84,03,230,,79,01,154,*65
$GNRMC,053848.000,A,4732.0527,N,01902.5423,E,0.407,19.43,110918,,,A*76
$GNVTG,19.43,T,,M,0.407,N,0.755,K,A*18
$GNACCURACY,2.7*13
$GNGGA,053849.000,4732.0522,N,01902.5424,E,1,8,1.09,106.5,M,41.1,M,,*4D
$GPGSA,A,3,25,31,21,29,26,02,,,,,,,1.40,1.09,0.87*0B
$GLGSA,A,3,82,83,,,,,,,,,,,1.40,1.09,0.87*1D
$GPGSV,3,1,10,29,81,005,43.6,25,56,122,42.2,31,49,266,31.6,21,30,198,32.2*77
$GPGSV,3,2,10,26,27,303,30.8,02,24,048,32.3,05,20,085,13.8,12,15,119,*69
$GPGSV,3,3,10,23,01,340,,16,01,300,*7A
$GLGSV,3,1,10,82,63,030,34.9,80,60,176,29.7,83,58,243,28.5,73,52,315,30.3*6E
$GLGSV,3,2,10,81,13,046,15.5,66,09,055,,65,07,000,,74,05,329,*70
$GLGSV,3,3,10,84,03,230,,79,01,154,*65
$GNRMC,053849.000,A,4732.0522,N,01902.5424,E,0.371,174.10,110918,,,A*4F
$GNVTG,174.10,T,,M,0.371,N,0.687,K,A*2C
$GNACCURACY,2.7*13
$GNGGA,053850.000,4732.0517,N,01902.5427,E,1,8,1.09,106.6,M,41.1,M,,*43
$GPGSA,A,3,25,31,21,29,26,02,,,,,,,1.40,1.09,0.87*0B
$GLGSA,A,3,82,83,,,,,,,,,,,1.40,1.09,0.87*1D
$GPGSV,3,1,10,29,81,005,43.9,25,56,122,43.1,31,49,266,30.8,21,30,198,32.8*7F
$GPGSV,3,2,10,26,27,303,31.3,02,24,048,31.1,05,20,085,13.4,12,15,119,*6E
$GPGSV,3,3,10,23,01,340,,16,01,300,*7A
$GLGSV,3,1,10,82,63,030,35.0,80,60,176,29.9,83,58,243,28.3,73,52,315,28.2*66
$GLGSV,3,2,10,81,13,046,15.2,66,09,055,,65,07,000,,74,05,329,*77
$GLGSV,3,3,10,84,03,230,,79,01,154,*65
$GNRMC,053850.000,A,4732.0517,N,01902.5427,E,0.000,166.13,110918,,,A*47
$GNVTG,166.13,T,,M,0.000,N,0.000,K,A*20
$GNACCURACY,2.7*13
$GNGGA,053851.000,4732.0510,N,01902.5420,E,1,8,1.09,106.6,M,41.1,M,,*42
$GPGSA,A,3,25,31,21,29,26,02,,,,,,,1.40,1.09,0.87*0B
$GLGSA,A,3,82,83,,,,,,,,,,,1.40,1.09,0.87*1D
$GPGSV,3,1,10,29,81,005,44.2,25,56,122,43.0,31,49,266,34.9,21,30,198,30.9*74
$GPGSV,3,2,10,26,27,303,31.4,02,24,048,29.5,05,20,085,13.1,12,15,119,*61
$GPGSV,3,3,10,23,01,340,,16,01,300,*7A
$GLGSV,3,1,10,82,63,030,35.2,80,60,176,28.7,83,58,243,27.0,73,52,315,31.5*68
$GLGSV,3,2,10,81,13,046,14.8,66,09,055,,65,07,000,,74,05,329,*7C
$GLGSV,3,3,10,84,03,230,,79,01,154,*65
$GNRMC,053851.000,A,4732.0510,N,01902.5420,E,0.572,196.47,110918,,,A*48
$GNVTG,196.47,T,,M,0.572,N,1.060,K,A*29
$GNACCURACY,2.7*13
$GNGGA,053852.000,4732.0502,N,01902.5410,E,1,8,1.09,106.6,M,41.1,M,,*41
$GPGSA,A,3,25,31,21,29,26,02,,,,,,,1.39,1.09,0.87*05
$GLGSA,A,3,82,83,,,,,,,,,,,1.39,1.09,0.87*13
$GPGSV,3,1,10,29,81,005,43.8,25,56,122,42.2,31,49,266,34.1,21,30,198,30.5*7E
$GPGSV,3,2,10,26,27,303,30.4,02,24,048,29.6,05,20,085,13.0,12,15,119,*62
$GPGSV,3,3,10,23,01,340,,16,01,300,*7A
$GLGSV,3,1,10,82,63,030,34.4,80,60,176,32.2,83,58,243,26.4,73,52,315,29.5*6D
$GLGSV,3,2,10,81,13,046,14.1,66,09,055,,65,07,000,,74,05,329,*75
$GLGSV,3,3,10,84,03,230,,79,01,154,*65
$GNRMC,053852.000,A,4732.0502,N,01902.5410,E,0.759,209.37,110918,,,A*42
$GNVTG,209.37,T,,M,0.759,N,1.406,K,A*24
$GNACCURACY,2.7*13
$GNGGA,053853.000,4732.0487,N,01902.5393,E,1,8,1.09,106.7,M,41.1,M,,*41
$GPGSA,A,3,25,31,21,29,26,02,,,,,,,1.39,1.09,0.87*05
$GLGSA,A,3,82,83,,,,,,,,,,,1.39,1.09,0.87*13
$GPGSV,3,1,10,29,81,005,42.3,25,56,122,40.8,31,49,266,32.9,21,30,198,28.0*7E
$GPGSV,3,2,10,26,27,303,29.9,02,24,048,35.1,05,20,085,13.5,12,15,119,*68
$GPGSV,3,3,10,23,01,340,,16,01,300,*7A
$GLGSV,3,1,10,82,63,030,33.8,80,60,176,31.2,83,58,243,26.2,73,52,315,29.8*6E
$GLGSV,3,2,10,81,13,046,18.5,66,09,055,,65,07,000,,74,05,329,*7D
$GLGSV,3,3,10,84,03,230,,79,01,154,*65
$GNRMC,053853.000,A,4732.0487,N,01902.5393,E,1.109,214.28,110918,,,A*43
$GNVTG,214.28,T,,M,1.109,N,2.055,K,A*25
$GNACCURACY,2.7*13
$GNGGA,053854.000,4732.0474,N,01902.5375,E,1,8,1.09,106.7,M,41.1,M,,*42
$GPGSA,A,3,25,31,21,29,26,02,,,,,,,1.40,1.09,0.87*0B
$GLGSA,A,3,82,83,,,,,,,,,,,1.40,1.09,0.87*1D
$GPGSV,3,1,10,29,81,005,41.9,25,56,122,40.0,31,49,266,31.3,21,30,198,26.6*7E
$GPGSV,3,2,10,26,27,303,29.3,02,24,048,33.4,05,20,085,13.9,12,15,119,*6D
$GPGSV,3,3,10,23,01,340,,16,01,300,*7A
$GLGSV,3,1,10,82,63,030,33.8,80,60,176,30.6,83,58,243,26.9,73,52,315,30.1*61
$GLGSV,3,2,10,81,13,046,18.5,66,09,055,,65,07,000,,74,05,329,*7D
$GLGSV,3,3,10,84,03,230,,79,01,154,*65
$GNRMC,053854.000,A,4732.0474,N,01902.5375,E,1.751,222.24,110918,,,A*42
$GNVTG,222.24,T,,M,1.751,N,3.244,K,A*24
$GNACCURACY,2.7*13
$GNGGA,053855.000,4732.0458,N,01902.5350,E,1,8,1.10,106.8,M,41.1,M,,*4D
$GPGSA,A,3,25,31,21,29,26,02,,,,,,,2.05,1.10,1.73*0B
$GLGSA,A,3,82,83,,,,,,,,,,,2.05,1.10,1.73*1D
$GPGSV,3,1,10,29,81,005,41.6,25,56,122,39.3,31,49,266,30.1,21,30,198,27.2*7A
$GPGSV,3,2,10,26,27,303,27.6,02,24,048,33.2,05,20,085,14.1,12,15,119,*6F
$GPGSV,3,3,10,23,01,340,,16,01,300,*7A
$GLGSV,3,1,10,82,63,030,33.6,80,60,176,30.3,83,58,243,26.7,73,52,315,29.9*64
$GLGSV,3,2,10,81,13,046,18.5,66,09,055,,65,07,000,,74,05,329,*7D
$GLGSV,3,3,10,84,03,230,,79,01,154,*65
$GNRMC,053855.000,A,4732.0458,N,01902.5350,E,2.633,227.21,110918,,,A*4C
$GNVTG,227.21,T,,M,2.633,N,4.878,K,A*20
$GNACCURACY,2.8*1C
$GNGGA,053856.000,4732.0438,N,01902.5316,E,1,8,1.10,107.0,M,41.1,M,,*43
$GPGSA,A,3,25,31,21,29,26,02,,,,,,,2.05,1.10,1.73*0B
$GLGSA,A,3,82,83,,,,,,,,,,,2.05,1.10,1.73*1D
$GPGSV,3,1,10,29,81,005,42.1,25,56,122,39.2,31,49,266,29.1,21,30,198,27.4*71
$GPGSV,3,2,10,26,27,303,28.3,02,24,048,32.9,05,20,085,14.3,12,15,119,*6D
$GPGSV,3,3,10,23,01,340,,16,01,300,*7A
$GLGSV,3,1,10,82,63,030,33.3,80,60,176,29.8,83,58,243,26.9,73,52,315,30.2*6F
$GLGSV,3,2,10,81,13,046,18.8,66,09,055,,65,07,000,,74,05,329,*70
$GLGSV,3,3,10,84,03,230,,79,01,154,*65
$GNRMC,053856.000,A,4732.0438,N,01902.5316,E,11.844,227.78,110918,,,A*7B
$GNVTG,227.78,T,,M,11.844,N,21.946,K,A*2B
$GNACCURACY,2.8*1C
$GNGGA,053857.000,4732.0415,N,01902.5280,E,1,8,1.10,107.2,M,41.1,M,,*41
$GPGSA,A,3,25,31,21,29,26,02,,,,,,,2.05,1.10,1.73*0B
$GLGSA,A,3,82,83,,,,,,,,,,,2.05,1.10,1.73*1D
$GPGSV,3,1,10,29,81,005,42.5,25,56,122,39.8,31,49,266,29.2,21,30,198,26.5*7C
$GPGSV,3,2,10,26,27,303,27.4,02,24,048,32.1,05,20,085,14.5,12,15,119,*6B
$GPGSV,3,3,10,23,01,340,,16,01,300,*7A
$GLGSV,3,1,10,82,63,030,33.6,80,60,176,28.8,83,58,243,27.0,73,52,315,30.1*60
$GLGSV,3,2,10,81,13,046,21.2,66,09,055,,65,07,000,,74,05,329,*70
$GLGSV,3,3,10,84,03,230,,79,01,154,*65
$GNRMC,053857.000,A,4732.0415,N,01902.5280,E,12.505,225.53,110918,,,A*7B
$GNVTG,225.53,T,,M,12.505,N,23.171,K,A*25
$GNACCURACY,2.8*1C
$GNGGA,053858.000,4732.0390,N,01902.5244,E,1,8,1.10,107.3,M,41.1,M,,*4D
$GPGSA,A,3,25,31,21,29,26,02,,,,,,,2.05,1.10,1.73*0B
$GLGSA,A,3,82,83,,,,,,,,,,,2.05,1.10,1.73*1D
$GPGSV,3,1,10,29,81,005,42.6,25,56,122,40.6,31,49,266,33.1,21,30,198,25.9*78
$GPGSV,3,2,10,26,27,303,26.0,02,24,048,32.0,05,20,085,14.3,12,15,119,*69
$GPGSV,3,3,10,23,01,340,,16,01,300,*7A
$GLGSV,3,1,10,82,63,030,33.9,80,60,176,28.6,83,58,243,26.7,73,52,315,31.0*67
$GLGSV,3,2,10,81,13,046,20.4,66,09,055,,65,07,000,,74,05,329,*77
$GLGSV,3,3,10,84,03,230,,79,01,154,*65
$GNRMC,053858.000,A,4732.0390,N,01902.5244,E,12.672,224.86,110918,,,A*7C
$GNVTG,224.86,T,,M,12.672,N,23.482,K,A*26
$GNACCURACY,2.8*1C
$GNGGA,053859.000,4732.0366,N,01902.5207,E,1,8,1.10,107.4,M,41.1,M,,*45
$GPGSA,A,3,25,31,21,29,26,02,,,,,,,2.05,1.10,1.74*0C
$GLGSA,A,3,82,83,,,,,,,,,,,2.05,1.10,1.74*1A
$GPGSV,3,1,10,29,81,005,42.8,25,56,122,40.7,31,49,266,31.6,21,30,198,26.0*78
$GPGSV,3,2,10,26,27,303,25.9,02,24,048,32.5,05,20,085,14.1,12,15,119,*64
$GPGSV,3,3,10,23,01,340,,16,01,300,*7A
$GLGSV,3,1,10,82,63,030,34.0,80,60,176,28.2,83,58,243,26.5,73,52,315,29.1*67
$GLGSV,3,2,10,81,13,046,21.0,66,09,055,,65,07,000,,74,05,329,*72
$GLGSV,3,3,10,84,03,230,,79,01,154,*65
$GNRMC,053859.000,A,4732.0366,N,01902.5207,E,12.473,226.67,110918,,,A*7D
$GNVTG,226.67,T,,M,12.473,N,23.112,K,A*24
$GNACCURACY,2.8*1C
$GNGGA,053900.000,4732.0344,N,01902.5168,E,1,8,1.10,107.5,M,41.1,M,,*43
$GPGSA,A,3,25,31,21,29,26,02,,,,,,,2.05,1.10,1.74*0C
$GLGSA,A,3,82,83,,,,,,,,,,,2.05,1.10,1.74*1A
$GPGSV,3,1,10,29,81,005,43.1,25,56,122,40.1,31,49,266,31.6,21,30,198,24.6*72
$GPGSV,3,2,10,26,27,303,25.5,02,24,048,32.6,05,20,085,14.3,12,15,119,*69
$GPGSV,3,3,10,23,01,340,,16,01,300,*7A
$GLGSV,3,1,10,82,63,030,34.7,80,60,176,28.4,83,58,243,26.5,73,52,315,27.0*69
$GLGSV,3,2,10,81,13,046,23.7,66,09,055,,65,07,000,,74,05,329,*77
$GLGSV,3,3,10,84,03,230,,79,01,154,*65
$GNRMC,053900.000,A,4732.0344,N,01902.5168,E,12.725,230.57,110918,,,A*7E
$GNVTG,230.57,T,,M,12.725,N,23.579,K,A*29
$GNACCURACY,2.8*1C
$GNGGA,053901.000,4732.0322,N,01902.5130,E,1,8,1.09,107.8,M,41.1,M,,*4A
$GPGSA,A,3,25,31,21,29,26,02,,,,,,,1.40,1.09,0.87*0B
$GLGSA,A,3,82,83,,,,,,,,,,,1.40,1.09,0.87*1D
$GPGSV,3,1,10,29,81,005,42.7,25,56,122,38.5,31,49,266,31.1,21,30,198,24.4*7B
$GPGSV,3,2,10,26,27,303,26.5,02,24,048,31.5,05,20,085,17.3,12,15,119,*69
$GPGSV,3,3,10,23,01,340,,16,01,300,*7A
$GLGSV,3,1,10,82,63,030,34.2,80,60,176,27.1,83,58,243,26.8,73,52,315,24.3*6B
$GLGSV,3,2,10,81,13,046,23.9,66,09,055,,65,07,000,,74,05,329,*79
$GLGSV,3,3,10,84,03,230,,79,01,154,*65
$GNRMC,053901.000,A,4732.0322,N,01902.5130,E,11.967,230.12,110918,,,A*78
$GNVTG,230.12,T,,M,11.967,N,22.175,K,A*2A
$GNACCURACY,2.8*1C
$GNGGA,053902.000,4732.0303,N,01902.5096,E,1,8,1.10,107.9,M,41.1,M,,*4E
$GPGSA,A,3,25,31,21,29,26,02,,,,,,,2.05,1.10,1.74*0C
$GLGSA,A,3,82,83,,,,,,,,,,,2.05,1.10,1.74*1A
$GPGSV,3,1,10,29,81,005,42.8,25,56,122,38.9,31,49,266,29.8,21,30,198,24.5*79
$GPGSV,3,2,10,26,27,303,25.3,02,24,048,31.1,05,20,085,17.3,12,15,119,*68
$GPGSV,3,3,10,23,01,340,,16,01,300,*7A
$GLGSV,3,1,10,82,63,030,34.1,80,60,176,26.7,83,58,243,27.1,73,52,315,22.4*66
$GLGSV,3,2,10,81,13,046,27.9,66,09,055,,65,06,000,,74,05,329,*7C
$GLGSV,3,3,10,84,03,230,,79,01,154,*65
$GNRMC,053902.000,A,4732.0303,N,01902.5096,E,10.768,229.49,110918,,,A*73
$GNVTG,229.49,T,,M,10.768,N,19.953,K,A*28
$GNACCURACY,2.8*1C
$GNGGA,053903.000,4732.0287,N,01902.5068,E,1,8,1.10,108.0,M,41.1,M,,*45
$GPGSA,A,3,25,31,21,29,26,02,,,,,,,2.06,1.10,1.74*0F
$GLGSA,A,3,82,83,,,,,,,,,,,2.06,1.10,1.74*19
$GPGSV,3,1,10,29,81,005,42.6,25,56,122,36.9,31,49,266,28.1,21,30,198,25.2*77
$GPGSV,3,2,10,26,27,303,26.0,02,24,048,30.2,05,20,085,22.2,12,15,119,*6D
$GPGSV,3,3,10,23,01,340,,16,01,300,*7A
$GLGSV,3,1,10,82,63,030,33.9,80,60,176,25.9,83,58,243,27.2,73,52,315,21.3*63
$GLGSV,3,2,10,81,13,046,28.4,66,09,055,,65,06,000,,74,05,329,*7E
$GLGSV,3,3,10,84,03,230,,79,01,154,*65
$GNRMC,053903.000,A,4732.0287,N,01902.5068,E,8.152,229.53,110918,,,A*43
$GNVTG,229.53,T,,M,8.152,N,15.106,K,A*11
$GNACCURACY,2.9*1D
$GNGGA,053904.000,4732.0270,N,01902.5048,E,1,8,1.10,108.1,M,41.1,M,,*49
$GPGSA,A,3,25,31,21,29,26,02,,,,,,,2.05,1.10,1.74*0C
$GLGSA,A,3,82,83,,,,,,,,,,,2.05,1.10,1.74*1A
$GPGSV,3,1,10,29,81,005,42.6,25,56,122,35.4,31,49,266,25.9,21,30,198,26.0*7D
$GPGSV,3,2,10,26,27,303,25.2,02,24,048,30.8,05,20,085,21.9,12,15,119,*6E
$GPGSV,3,3,10,23,01,340,,16,01,300,*7A
$GLGSV,3,1,10,82,63,030,34.0,80,60,176,25.5,83,58,243,27.1,73,52,315,20.6*66
$GLGSV,3,2,10,81,13,046,28.5,66,09,055,,65,06,000,,74,05,329,*7F
$GLGSV,3,3,10,84,03,230,,79,01,154,*65
$GNRMC,053904.000,A,4732.0270,N,01902.5048,E,7.579,220.01,110918,,,A*42
$GNVTG,220.01,T,,M,7.579,N,14.045,K,A*1A
$GNACCURACY,3.0*15
$GNGGA,053905.000,4732.0254,N,01902.5031,E,1,8,1.09,108.3,M,41.1,M,,*4A
$GPGSA,A,3,25,31,21,29,26,02,,,,,,,1.40,1.09,0.87*0B
$GLGSA,A,3,82,83,,,,,,,,,,,1.40,1.09,0.87*1D
$GPGSV,3,1,10,29,81,005,43.5,25,56,122,40.7,31,49,266,24.7,21,30,198,29.7*79
$GPGSV,3,2,10,26,27,303,25.1,02,24,048,30.6,05,20,085,22.5,12,15,119,*6C
$GPGSV,3,3,10,23,01,340,,16,01,300,*7A
$GLGSV,3,1,10,82,63,030,34.1,80,60,176,24.9,83,58,243,26.4,73,52,315,20.2*6A
$GLGSV,3,2,10,81,13,046,34.6,66,09,055,,65,06,000,,74,05,329,*71
$GLGSV,3,3,10,84,03,230,,79,01,154,*65
$GNRMC,053905.000,A,4732.0254,N,01902.5031,E,6.044,220.82,110918,,,A*4A
$GNVTG,220.82,T,,M,6.044,N,11.200,K,A*1D
$GNACCURACY,3.0*15
$GNGGA,053906.000,4732.0239,N,01902.5027,E,1,8,1.10,108.6,M,41.1,M,,*48
$GPGSA,A,3,25,31,21,29,26,02,,,,,,,2.06,1.10,1.74*0F
$GLGSA,A,3,82,83,,,,,,,,,,,2.06,1.10,1.74*19
$GPGSV,3,1,10,29,81,005,43.2,25,56,122,40.6,31,49,266,24.2,21,30,198,28.9*75
$GPGSV,3,2,10,26,27,303,26.3,02,24,048,28.9,05,20,085,21.7,12,15,119,*6A
$GPGSV,3,3,10,23,01,340,,16,01,300,*7A
$GLGSV,3,1,10,82,63,030,34.9,80,60,176,29.7,83,58,243,25.4,73,52,315,19.8*62
$GLGSV,3,2,10,81,13,046,24.4,66,09,055,,65,06,000,,74,05,329,*72
$GLGSV,3,3,10,84,03,230,,79,01,154,*65
$GNRMC,053906.000,A,4732.0239,N,01902.5027,E,9.920,198.44,110918,,,A*4B
$GNVTG,198.44,T,,M,9.920,N,18.383,K,A*10
$GNACCURACY,3.0*15
$GNGGA,053907.000,4732.0229,N,01902.5023,E,1,8,1.09,108.9,M,41.1,M,,*4B
$GPGSA,A,3,25,31,21,29,26,02,,,,,,,1.40,1.09,0.87*0B
$GLGSA,A,3,82,83,,,,,,,,,,,1.40,1.09,0.87*1D
$GPGSV,3,1,10,29,81,005,43.3,25,56,122,45.8,31,49,266,28.9,21,30,198,27.9*77
$GPGSV,3,2,10,26,27,303,25.4,02,24,048,27.5,05,20,085,21.2,12,15,119,30.6*73
$GPGSV,3,3,10,23,01,340,,16,01,300,*7A
$GLGSV,3,1,11,82,63,030,34.6,80,60,176,28.7,83,58,243,25.6,73,52,315,19.2*65
$GLGSV,3,2,11,81,13,046,30.0,66,09,055,,65,06,000,,70,06,000,*7D
$GLGSV,3,3,11,74,05,329,,84,03,230,,79,01,154,*5A
$GNRMC,053907.000,A,4732.0229,N,01902.5023,E,9.123,203.76,110918,,,A*44
$GNVTG,203.76,T,,M,9.123,N,16.904,K,A*10
$GNACCURACY,3.0*15
$GNGGA,053908.000,4732.0219,N,01902.5022,E,1,8,1.10,109.0,M,41.1,M,,*46
$GPGSA,A,3,25,31,21,29,26,02,,,,,,,2.06,1.10,1.74*0F
$GLGSA,A,3,82,83,,,,,,,,,,,2.06,1.10,1.74*19
$GPGSV,3,1,10,29,81,005,43.0,25,56,122,44.2,31,49,266,32.5,21,30,198,28.5*7B
$GPGSV,3,2,10,26,27,303,25.3,02,24,048,28.2,05,20,085,20.5,12,15,119,35.9*70
$GPGSV,3,3,10,23,01,340,,16,01,300,*7A
$GLGSV,3,1,11,82,63,030,34.7,80,60,176,27.8,83,58,243,25.6,73,52,315,18.8*6F
$GLGSV,3,2,11,81,13,046,28.9,66,09,055,,65,06,000,,70,06,000,*7D
$GLGSV,3,3,11,74,05,329,,84,03,230,,79,01,154,*5A
$GNRMC,053908.000,A,4732.0219,N,01902.5022,E,8.317,185.22,110918,,,A*41
$GNVTG,185.22,T,,M,8.317,N,15.412,K,A*11
$GNACCURACY,3.0*15
$GNGGA,053909.000,4732.0204,N,01902.5025,E,1,8,1.09,109.0,M,41.1,M,,*44
$GPGSA,A,3,25,31,21,29,26,02,,,,,,,1.40,1.09,0.87*0B
$GLGSA,A,3,82,83,,,,,,,,,,,1.40,1.09,0.87*1D
$GPGSV,3,1,10,29,81,005,42.8,25,56,122,41.8,31,49,266,31.4,21,30,198,25.6*71
$GPGSV,3,2,10,26,27,303,26.2,02,24,048,28.8,05,20,085,19.8,12,15,119,39.1*7B
$GPGSV,3,3,10,23,01,340,,16,01,300,*7A
$GLGSV,3,1,11,82,63,030,34.3,80,60,176,26.9,83,58,243,25.8,73,52,315,18.8*65
$GLGSV,3,2,11,81,13,046,28.9,66,09,055,,65,06,000,,70,06,000,*7D
$GLGSV,3,3,11,74,05,329,,84,03,230,,79,01,154,*5A
$GNRMC,053909.000,A,4732.0204,N,01902.5025,E,7.689,166.05,110918,,,A*4E
$GNVTG,166.05,T,,M,7.689,N,14.248,K,A*1C
$GNACCURACY,3.0*15
$GNGGA,053910.000,4732.0195,N,01902.5044,E,1,8,1.10,109.3,M,41.1,M,,*4B
$GPGSA,A,3,25,31,21,29,26,02,,,,,,,2.06,1.10,1.74*0F
$GLGSA,A,3,82,83,,,,,,,,,,,2.06,1.10,1.74*19
$GPGSV,3,1,10,29,81,005,42.8,25,56,122,32.3,31,49,266,34.8,21,30,198,23.9*7E
$GPGSV,3,2,10,26,27,303,24.9,02,24,048,29.6,05,20,085,22.6,12,15,119,28.2*78
$GPGSV,3,3,10,23,01,340,,16,01,300,*7A
$GLGSV,3,1,11,82,63,030,34.8,80,60,176,25.8,83,58,243,26.1,73,52,315,22.4*63
$GLGSV,3,2,11,81,13,046,27.3,66,09,055,,65,06,000,,70,06,000,*78
$GLGSV,3,3,11,74,05,329,,84,03,230,,79,01,154,*5A
$GNRMC,053910.000,A,4732.0195,N,01902.5044,E,7.036,125.10,110918,,,A*4B
$GNVTG,125.10,T,,M,7.036,N,13.037,K,A*10
$GNACCURACY,3.1*14
$GNGGA,053911.000,4732.0187,N,01902.5066,E,1,8,1.10,109.3,M,41.1,M,,*49
$GPGSA,A,3,25,31,21,29,26,02,,,,,,,2.06,1.10,1.74*0F
$GLGSA,A,3,82,83,,,,,,,,,,,2.06,1.10,1.74*19
$GPGSV,3,1,10,29,81,005,42.6,25,56,122,32.1,31,49,266,41.2,21,30,198,22.5*77
$GPGSV,3,2,10,26,27,303,23.9,02,24,048,30.3,05,20,085,22.4,12,15,119,34.1*7E
$GPGSV,3,3,10,23,01,340,,16,01,300,*7A
$GLGSV,3,1,11,82,63,030,34.4,80,60,176,24.0,83,58,243,25.3,73,52,315,33.5*66
$GLGSV,3,2,11,81,13,046,25.3,66,09,055,,65,06,000,,70,06,000,*7A
$GLGSV,3,3,11,74,05,329,,84,03,230,,79,01,154,*5A
$GNRMC,053911.000,A,4732.0187,N,01902.5066,E,6.498,116.46,110918,,,A*4B
$GNVTG,116.46,T,,M,6.498,N,12.041,K,A*12
$GNACCURACY,3.1*14
$GNGGA,053912.000,4732.0177,N,01902.5090,E,1,8,1.10,109.6,M,41.1,M,,*49
$GPGSA,A,3,25,31,21,29,26,02,,,,,,,2.06,1.10,1.74*0F
$GLGSA,A,3,82,83,,,,,,,,,,,2.06,1.10,1.74*19
$GPGSV,3,1,10,29,81,005,41.7,25,56,122,32.2,31,49,266,41.2,21,30,198,21.0*70
$GPGSV,3,2,10,26,27,303,24.1,02,24,048,30.2,05,20,085,28.0,12,15,119,34.6*79
$GPGSV,3,3,10,23,01,340,,16,01,300,*7A
$GLGSV,3,1,11,82,63,030,33.7,80,60,176,23.6,83,58,243,30.0,73,52,315,32.7*67
$GLGSV,3,2,11,81,13,046,23.7,66,09,055,,65,06,000,,70,06,000,*78
$GLGSV,3,3,11,74,05,329,,84,03,230,,79,01,154,*5A
$GNRMC,053912.000,A,4732.0177,N,01902.5090,E,6.184,120.88,110918,,,A*41
$GNVTG,120.88,T,,M,6.184,N,11.459,K,A*13
$GNACCURACY,3.1*14
$GNGGA,053913.000,4732.0165,N,01902.5118,E,1,8,1.09,109.7,M,41.1,M,,*43
$GPGSA,A,3,25,31,21,29,26,02,,,,,,,1.40,1.09,0.87*0B
$GLGSA,A,3,82,83,,,,,,,,,,,1.40,1.09,0.87*1D
$GPGSV,3,1,10,29,81,005,42.0,25,56,122,32.2,31,49,266,41.6,21,30,198,20.0*71
$GPGSV,3,2,10,26,27,303,24.2,02,24,048,32.8,05,20,085,26.9,12,15,119,34.5*76
$GPGSV,3,3,10,23,01,340,,16,01,300,*7A
$GLGSV,3,1,11,82,63,030,32.0,80,60,176,23.9,83,58,243,23.0,73,52,315,32.6*6D
$GLGSV,3,2,11,81,13,046,23.7,66,09,055,,65,06,000,,70,06,000,*78
$GLGSV,3,3,11,74,05,329,,84,03,230,,79,01,154,*5A
$GNRMC,053913.000,A,4732.0165,N,01902.5118,E,6.261,119.93,110918,,,A*4A
$GNVTG,119.93,T,,M,6.261,N,11.601,K,A*14
$GNACCURACY,3.1*14
$GNGGA,053914.000,4732.0152,N,01902.5148,E,1,8,1.09,109.9,M,41.1,M,,*4B
$GPGSA,A,3,25,31,21,29,26,02,,,,,,,1.40,1.09,0.87*0B
$GLGSA,A,3,82,83,,,,,,,,,,,1.40,1.09,0.87*1D
$GPGSV,3,1,10,29,81,005,44.7,25,56,122,30.8,31,49,266,30.2,21,30,198,19.3*73
$GPGSV,3,2,10,26,27,303,24.7,02,24,048,31.2,05,20,085,24.7,12,15,119,34.9*7A
$GPGSV,3,3,10,23,01,340,,16,01,300,*7A
$GLGSV,3,1,12,82,63,030,31.1,80,60,176,24.3,83,58,243,21.8,73,52,315,33.1*6D
$GLGSV,3,2,12,77,51,178,,81,13,046,22.6,66,09,055,,65,06,000,*70
$GLGSV,3,3,12,70,06,000,,74,05,329,,84,03,230,,79,01,154,*68
$GNRMC,053914.000,A,4732.0152,N,01902.5148,E,6.371,123.10,110918,,,A*4E
$GNVTG,123.10,T,,M,6.371,N,11.805,K,A*1C
$GNACCURACY,3.1*14
$GNGGA,053915.000,4732.0134,N,01902.5182,E,1,8,1.09,110.0,M,41.1,M,,*4D
$GPGSA,A,3,25,31,21,29,26,02,,,,,,,1.40,1.09,0.87*0B
$GLGSA,A,3,82,83,,,,,,,,,,,1.40,1.09,0.87*1D
$GPGSV,3,1,10,29,81,005,43.1,25,56,122,30.5,31,49,266,30.2,21,30,198,17.2*70
$GPGSV,3,2,10,26,27,303,33.7,02,24,048,28.7,05,20,085,23.2,12,15,119,35.1*7A
$GPGSV,3,3,10,23,01,340,,16,01,300,*7A
$GLGSV,4,1,13,78,64,299,,82,63,030,32.0,80,60,176,24.0,83,58,243,21.4*72
$GLGSV,4,2,13,73,52,315,32.1,77,51,178,,81,13,046,21.0,66,09,055,*6C
$GLGSV,4,3,13,65,06,000,,70,06,000,,74,05,329,,84,03,230,*64
$GLGSV,4,4,13,79,01,154,*58
$GNRMC,053915.000,A,4732.0134,N,01902.5182,E,6.850,124.42,110918,,,A*41
$GNVTG,124.42,T,,M,6.850,N,12.693,K,A*16
$GNACCURACY,3.2*17
$GNGGA,053916.000,4732.0114,N,01902.5214,E,1,8,1.09,110.1,M,41.1,M,,*41
$GPGSA,A,3,25,31,21,29,26,02,,,,,,,1.40,1.09,0.87*0B
$GLGSA,A,3,82,83,,,,,,,,,,,1.40,1.09,0.87*1D
$GPGSV,3,1,10,29,81,005,43.3,25,56,122,29.5,31,49,266,31.0,21,30,198,15.9*70
$GPGSV,3,2,10,26,27,303,33.7,02,24,048,23.7,05,20,085,27.1,12,15,119,35.7*70
$GPGSV,3,3,10,23,01,340,,16,01,300,*7A
$GLGSV,4,1,13,78,64,299,,82,63,030,33.0,80,60,176,23.0,83,58,243,20.7*76
$GLGSV,4,2,13,73,52,315,31.1,77,51,178,,79,26,326,,81,13,046,18.9*68
$GLGSV,4,3,13,66,09,055,,65,06,000,,70,06,000,,74,05,329,*63
$GLGSV,4,4,13,84,03,230,*59
$GNRMC,053916.000,A,4732.0114,N,01902.5214,E,7.560,129.90,110918,,,A*41
$GNVTG,129.90,T,,M,7.560,N,14.009,K,A*18
$GNACCURACY,3.2*17
$GNGGA,053917.000,4732.0091,N,01902.5254,E,1,8,1.09,110.3,M,41.1,M,,*4A
$GPGSA,A,3,25,31,21,29,26,02,,,,,,,1.40,1.09,0.87*0B
$GLGSA,A,3,82,83,,,,,,,,,,,1.40,1.09,0.87*1D
$GPGSV,3,1,10,29,81,005,43.3,25,56,122,30.4,31,49,266,30.4,21,30,198,16.3*75
$GPGSV,3,2,10,26,27,303,33.6,02,24,048,21.6,05,20,085,26.0,12,15,119,36.2*74
$GPGSV,3,3,10,23,01,340,,16,01,300,*7A
$GLGSV,4,1,13,78,64,299,,82,63,030,31.3,80,59,176,21.6,83,58,243,20.1*7F
$GLGSV,4,2,13,73,52,315,30.8,77,51,178,,79,26,326,,81,13,046,17.5*63
$GLGSV,4,3,13,66,09,055,,65,06,000,,70,06,000,,74,05,329,*63
$GLGSV,4,4,13,84,03,230,*59
$GNRMC,053917.000,A,4732.0091,N,01902.5254,E,8.418,128.36,110918,,,A*44
$GNVTG,128.36,T,,M,8.418,N,15.599,K,A*19
$GNACCURACY,3.3*16
$GNGGA,053918.000,4732.0066,N,01902.5297,E,1,8,1.09,110.4,M,41.1,M,,*45
$GPGSA,A,3,25,31,21,29,26,02,,,,,,,1.40,1.09,0.87*0B
$GLGSA,A,3,82,83,,,,,,,,,,,1.40,1.09,0.87*1D
$GPGSV,3,1,10,29,81,005,43.1,25,56,122,30.8,31,49,266,30.0,21,30,198,34.3*7F
$GPGSV,3,2,10,26,27,303,34.0,02,24,048,20.1,05,20,085,38.7,12,15,119,35.6*7C
$GPGSV,3,3,10,23,01,340,,16,01,300,*7A
$GLGSV,4,1,13,78,64,299,,82,63,030,27.9,80,59,176,28.4,83,58,243,19.4*76
$GLGSV,4,2,13,73,52,315,31.5,77,51,178,,79,26,326,,81,13,046,16.6*6D
$GLGSV,4,3,13,66,09,055,,65,06,000,,70,06,000,,74,05,329,*63
$GLGSV,4,4,13,84,03,230,*59
$GNRMC,053918.000,A,4732.0066,N,01902.5297,E,9.379,128.08,110918,,,A*40
$GNVTG,128.08,T,,M,9.379,N,17.378,K,A*1E
$GNACCURACY,3.4*11
$GNGGA,053919.000,4732.0042,N,01902.5345,E,1,8,1.09,110.5,M,41.1,M,,*4D
$GPGSA,A,3,25,31,21,29,26,02,,,,,,,1.40,1.09,0.87*0B
$GLGSA,A,3,82,83,,,,,,,,,,,1.40,1.09,0.87*1D
$GPGSV,3,1,10,29,81,005,42.3,25,56,122,30.7,31,49,266,29.1,21,30,198,35.8*70
$GPGSV,3,2,10,26,27,303,33.8,02,24,048,30.2,05,20,085,38.6,12,15,119,35.5*73
$GPGSV,3,3,10,23,01,340,,16,01,300,*7A
$GLGSV,4,1,13,78,64,299,,82,62,030,27.9,80,59,176,28.7,83,58,243,29.3*70
$GLGSV,4,2,13,73,52,315,,77,51,178,,79,26,326,,81,13,046,15.9*78
$GLGSV,4,3,13,66,09,055,,65,06,000,,70,06,000,,74,05,329,*63
$GLGSV,4,4,13,84,03,230,*59
$GNRMC,053919.000,A,4732.0042,N,01902.5345,E,10.250,124.39,110918,,,A*75
$GNVTG,124.39,T,,M,10.250,N,18.992,K,A*23
$GNACCURACY,3.3*16
$GNGGA,053920.000,4732.0015,N,01902.5387,E,1,8,1.09,110.2,M,41.1,M,,*4C
$GPGSA,A,3,25,31,21,29,26,02,,,,,,,1.40,1.09,0.87*0B
$GLGSA,A,3,82,83,,,,,,,,,,,1.40,1.09,0.87*1D
$GPGSV,3,1,10,29,81,005,41.9,25,56,122,30.9,31,49,266,40.8,21,30,198,28.7*72
$GPGSV,3,2,10,26,27,303,33.7,02,24,048,31.3,05,20,085,36.0,12,15,119,36.4*76
$GPGSV,3,3,10,23,01,340,,16,01,300,*7A
$GLGSV,4,1,13,78,64,299,,82,62,030,35.0,80,59,176,28.9,83,58,244,29.7*77
$GLGSV,4,2,13,73,52,315,,77,51,178,,79,26,326,,81,13,046,*6B
$GLGSV,4,3,13,66,09,055,,65,06,000,,70,06,000,,74,05,329,*63
$GLGSV,4,4,13,84,03,230,*59
$GNRMC,053920.000,A,4732.0015,N,01902.5387,E,11.189,124.74,110918,,,A*7C
$GNVTG,124.74,T,,M,11.189,N,20.734,K,A*25
$GNACCURACY,3.1*14
$GNGGA,053921.000,4731.9988,N,01902.5430,E,1,8,1.10,110.4,M,41.1,M,,*4F
$GPGSA,A,3,25,31,21,29,26,02,,,,,,,2.06,1.10,1.74*0F
$GLGSA,A,3,82,83,,,,,,,,,,,2.06,1.10,1.74*19
$GPGSV,3,1,10,29,81,005,41.5,25,56,122,33.9,31,49,266,41.1,21,30,198,37.3*7F
$GPGSV,3,2,10,26,27,303,34.2,02,24,048,30.6,05,20,085,25.0,12,15,119,36.0*76
$GPGSV,3,3,10,23,01,340,,16,01,300,*7A
$GLGSV,4,1,13,78,64,299,,82,62,030,33.9,80,59,176,28.7,83,58,244,30.1*78
$GLGSV,4,2,13,73,52,315,,77,51,178,,79,26,326,,81,13,046,*6B
$GLGSV,4,3,13,66,09,055,,65,06,000,,70,06,000,,74,05,329,*63
$GLGSV,4,4,13,84,04,231,*5F
$GNRMC,053921.000,A,4731.9988,N,01902.5430,E,12.084,125.29,110918,,,A*77
$GNVTG,125.29,T,,M,12.084,N,22.392,K,A*29
$GNACCURACY,3.0*15
$GNGGA,053922.000,4731.9965,N,01902.5481,E,1,8,1.10,110.8,M,41.1,M,,*49
$GPGSA,A,3,25,31,21,29,26,02,,,,,,,2.06,1.10,1.74*0F
$GLGSA,A,3,82,83,,,,,,,,,,,2.06,1.10,1.74*19
$GPGSV,3,1,10,29,81,005,41.2,25,56,122,34.2,31,49,266,40.1,21,30,198,38.0*79
$GPGSV,3,2,10,26,27,303,34.0,02,24,048,27.9,05,20,085,30.1,12,15,119,35.4*7F
$GPGSV,3,3,10,23,01,340,,16,01,300,*7A
$GLGSV,4,1,13,78,64,299,,82,62,030,32.3,80,59,176,26.7,83,58,244,30.1*7D
$GLGSV,4,2,13,73,52,315,,77,51,178,,79,26,326,,81,13,046,*6B
$GLGSV,4,3,13,66,09,055,,65,06,000,,70,06,000,,74,05,329,*63
$GLGSV,4,4,13,84,04,231,*5F
$GNRMC,053922.000,A,4731.9965,N,01902.5481,E,12.923,122.21,110918,,,A*76
$GNVTG,122.21,T,,M,12.923,N,23.946,K,A*20
$GNACCURACY,2.8*1C
$GNGGA,053923.000,4731.9945,N,01902.5536,E,1,8,1.10,111.1,M,41.1,M,,*4F
$GPGSA,A,3,25,31,21,29,26,02,,,,,,,2.06,1.10,1.74*0F
$GLGSA,A,3,82,83,,,,,,,,,,,2.06,1.10,1.74*19
$GPGSV,3,1,10,29,81,005,40.9,25,56,122,34.7,31,49,266,38.8,21,30,198,27.8*76
$GPGSV,3,2,10,26,27,303,33.0,02,24,048,28.1,05,20,085,29.6,12,15,119,36.1*76
$GPGSV,3,3,10,23,01,340,,16,01,300,*7A
$GLGSV,4,1,13,78,64,299,,82,62,030,32.0,80,59,176,19.0,83,58,244,29.3*7F
$GLGSV,4,2,13,73,52,315,,77,51,178,,79,26,326,,81,13,046,17.5*76
$GLGSV,4,3,13,66,09,055,,65,06,000,,70,06,000,,74,05,329,*63
$GLGSV,4,4,13,84,04,231,*5F
$GNRMC,053923.000,A,4731.9945,N,01902.5536,E,13.599,117.79,110918,,,A*7F
$GNVTG,117.79,T,,M,13.599,N,25.199,K,A*2B
$GNACCURACY,2.8*1C
$GNGGA,053924.000,4731.9927,N,01902.5589,E,1,7,1.64,111.6,M,41.1,M,,*43
$GPGSA,A,3,25,31,29,26,02,,,,,,,,2.87,1.64,2.36*03
$GLGSA,A,3,82,83,,,,,,,,,,,2.87,1.64,2.36*16
$GPGSV,3,1,10,29,81,005,40.3,25,56,122,35.4,31,49,266,38.5,21,30,198,27.8*73
$GPGSV,3,2,10,26,27,303,30.3,02,24,048,26.9,05,20,085,33.2,12,15,119,36.5*7B
$GPGSV,3,3,10,23,01,340,,16,01,300,*7A
$GLGSV,4,1,13,78,64,299,,82,62,030,37.9,80,59,176,18.2,83,58,244,24.7*79
$GLGSV,4,2,13,73,52,315,,77,51,178,,79,26,326,,81,13,046,29.0*7E
$GLGSV,4,3,13,66,09,055,,65,06,000,,70,06,000,,74,05,329,*63
$GLGSV,4,4,13,84,04,231,*5F
$GNRMC,053924.000,A,4731.9927,N,01902.5589,E,14.210,116.48,110918,,,A*7A
$GNVTG,116.48,T,,M,14.210,N,26.330,K,A*2B
$GNACCURACY,2.8*1C
$GNGGA,053925.000,4731.9908,N,01902.5645,E,1,7,1.64,111.7,M,41.1,M,,*4D
$GPGSA,A,3,25,31,29,26,02,,,,,,,,2.87,1.64,2.36*03
$GLGSA,A,3,82,83,,,,,,,,,,,2.87,1.64,2.36*16
$GPGSV,3,1,10,29,81,005,40.5,25,56,122,35.8,31,49,266,24.2,21,30,198,27.8*73
$GPGSV,3,2,10,26,27,303,29.3,02,24,048,29.9,05,20,085,33.7,12,15,119,36.9*75
$GPGSV,3,3,10,23,01,340,,16,01,300,*7A
$GLGSV,4,1,13,78,64,299,,82,62,030,37.0,80,59,176,17.7,83,58,244,24.7*7A
$GLGSV,4,2,13,73,52,315,,77,51,178,,79,26,326,,81,13,046,27.2*72
$GLGSV,4,3,13,66,09,055,,65,06,000,,70,06,000,,74,05,329,*63
$GLGSV,4,4,13,84,04,231,*5F
$GNRMC,053925.000,A,4731.9908,N,01902.5645,E,14.745,117.82,110918,,,A*77
$GNVTG,117.82,T,,M,14.745,N,27.323,K,A*2A
$GNACCURACY,2.8*1C
$GNGGA,053926.000,4731.9890,N,01902.5704,E,1,7,1.41,111.9,M,41.1,M,,*43
$GPGSA,A,3,25,31,29,26,02,,,,,,,,1.68,1.41,0.92*0A
$GLGSA,A,3,82,83,,,,,,,,,,,1.68,1.41,0.92*1F
$GPGSV,3,1,10,29,81,005,40.2,25,56,122,35.6,31,49,266,24.3,21,30,198,12.5*70
$GPGSV,3,2,10,26,27,303,29.9,02,24,048,30.5,05,20,085,31.9,12,15,119,37.2*7D
$GPGSV,3,3,10,23,01,340,,16,01,300,*7A
$GLGSV,4,1,13,78,64,299,,82,62,030,35.6,80,59,176,17.1,83,58,244,24.7*78
$GLGSV,4,2,13,73,52,315,,77,51,178,,79,26,326,,81,13,046,26.2*73
$GLGSV,4,3,13,66,09,055,,65,06,000,,70,06,000,,74,05,329,*63
$GLGSV,4,4,13,84,04,231,*5F
$GNRMC,053926.000,A,4731.9890,N,01902.5704,E,15.237,113.73,110918,,,A*7B
$GNVTG,113.73,T,,M,15.237,N,28.235,K,A*28
$GNACCURACY,2.8*1C
$GNGGA,053927.000,4731.9872,N,01902.5762,E,1,7,1.41,112.1,M,41.1,M,,*45
$GPGSA,A,3,25,31,29,26,02,,,,,,,,1.68,1.41,0.92*0A
$GLGSA,A,3,82,83,,,,,,,,,,,1.68,1.41,0.92*1F
$GPGSV,3,1,10,29,81,005,40.5,25,56,122,35.1,31,49,266,23.4,21,30,198,12.5*70
$GPGSV,3,2,10,26,27,303,33.1,02,24,048,38.3,05,20,085,31.8,12,15,119,37.3*70
$GPGSV,3,3,10,23,01,340,,16,01,300,*7A
$GLGSV,4,1,13,78,64,299,,82,62,030,33.6,80,59,176,16.7,83,58,244,13.2*78
$GLGSV,4,2,13,73,52,315,,77,51,178,,79,26,326,,81,13,046,29.4*7A
$GLGSV,4,3,13,66,09,055,,65,06,000,,70,06,000,,74,05,329,*63
$GLGSV,4,4,13,84,04,231,*5F
$GNRMC,053927.000,A,4731.9872,N,01902.5762,E,15.410,121.91,110918,,,A*78
$GNVTG,121.91,T,,M,15.410,N,28.554,K,A*26
$GNACCURACY,2.7*13
$GNGGA,053928.000,4731.9851,N,01902.5810,E,1,7,1.41,112.4,M,41.1,M,,*44
$GPGSA,A,3,25,31,29,26,02,,,,,,,,1.68,1.41,0.92*0A
$GLGSA,A,3,82,83,,,,,,,,,,,1.68,1.41,0.92*1F
$GPGSV,3,1,10,29,81,005,40.7,25,56,122,33.1,31,49,266,23.1,21,30,198,11.6*71
$GPGSV,3,2,10,26,27,303,33.7,02,24,048,29.2,05,20,085,35.6,12,15,119,36.3*7C
$GPGSV,3,3,10,23,01,340,,16,01,300,*7A
$GLGSV,4,1,13,78,64,299,,82,62,030,33.0,80,59,176,16.4,83,58,244,13.2*7D
$GLGSV,4,2,13,73,52,315,,77,51,178,,79,26,326,,81,13,046,29.7*79
$GLGSV,4,3,13,66,09,055,,65,06,000,,70,06,000,,74,05,329,*63
$GLGSV,4,4,13,84,04,231,*5F
$GNRMC,053928.000,A,4731.9851,N,01902.5810,E,15.346,125.53,110918,,,A*72
$GNVTG,125.53,T,,M,15.346,N,28.436,K,A*2D
$GNACCURACY,2.8*1C
$GNGGA,053929.000,4731.9840,N,01902.5844,E,1,7,1.41,112.6,M,41.1,M,,*46
$GPGSA,A,3,25,31,29,26,02,,,,,,,,1.68,1.41,0.92*0A
$GLGSA,A,3,82,83,,,,,,,,,,,1.68,1.41,0.92*1F
$GPGSV,3,1,10,29,81,005,41.2,25,56,122,33.6,31,49,266,23.4,21,30,198,11.6*77
$GPGSV,3,2,10,26,27,303,34.2,02,24,048,38.5,05,20,085,35.8,12,15,119,35.1*76
$GPGSV,3,3,10,23,01,340,,16,01,300,*7A
$GLGSV,4,1,13,78,64,299,,82,62,030,32.3,80,59,176,,83,58,244,16.5*60
$GLGSV,4,2,13,73,52,315,,77,51,178,,79,26,326,,81,13,046,35.5*76
$GLGSV,4,3,13,66,09,055,,65,06,000,,70,06,000,,74,05,329,*63
$GLGSV,4,4,13,84,04,231,*5F
$GNRMC,053929.000,A,4731.9840,N,01902.5844,E,14.767,126.64,110918,,,A*73
$GNVTG,126.64,T,,M,14.767,N,27.363,K,A*24
$GNACCURACY,2.8*1C
$GNGGA,053930.000,4731.9829,N,01902.5874,E,1,7,1.41,112.9,M,41.1,M,,*4D
$GPGSA,A,3,25,31,29,26,02,,,,,,,,1.68,1.41,0.92*0A
$GLGSA,A,3,82,83,,,,,,,,,,,1.68,1.41,0.92*1F
$GPGSV,3,1,10,29,81,005,39.5,25,56,122,33.7,31,49,266,24.5,21,30,198,11.6*78
$GPGSV,3,2,10,26,27,303,33.6,02,24,048,29.0,05,20,085,35.6,12,15,119,33.1*78
$GPGSV,3,3,10,23,01,340,,16,01,300,*7A
$GLGSV,4,1,13,78,64,299,,82,62,030,35.6,80,59,176,,83,58,244,16.5*62
$GLGSV,4,2,13,73,52,315,,77,51,178,,79,26,326,,81,13,046,32.3*77
$GLGSV,4,3,13,66,09,055,,65,06,000,,70,06,000,,74,05,329,*63
$GLGSV,4,4,13,84,04,231,*5F
$GNRMC,053930.000,A,4731.9829,N,01902.5874,E,8.292,123.77,110918,,,A*42
$GNVTG,123.77,T,,M,8.292,N,15.366,K,A*15
$GNACCURACY,2.9*1D
$GNGGA,053931.000,4731.9824,N,01902.5901,E,1,9,0.96,113.3,M,41.1,M,,*4C
$GPGSA,A,3,25,31,21,29,26,02,12,,,,,,1.26,0.96,0.82*0A
$GLGSA,A,3,82,83,,,,,,,,,,,1.26,0.96,0.82*1F
$GPGSV,3,1,10,29,81,005,42.6,25,56,122,33.1,31,49,266,24.5,21,30,198,31.8*7D
$GPGSV,3,2,10,26,27,303,32.5,02,24,048,36.1,05,20,085,35.5,12,15,119,31.5*70
$GPGSV,3,3,10,23,01,340,,16,01,300,*7A
$GLGSV,4,1,13,78,64,299,,82,62,030,34.7,80,59,176,,83,58,244,16.5*62
$GLGSV,4,2,13,73,52,315,30.8,77,51,178,,79,26,326,,81,13,046,31.4*66
$GLGSV,4,3,13,66,09,055,,65,06,000,,70,06,000,,74,05,329,*63
$GLGSV,4,4,13,84,04,231,*5F
$GNRMC,053931.000,A,4731.9824,N,01902.5901,E,7.017,119.76,110918,,,A*45
$GNVTG,119.76,T,,M,7.017,N,13.002,K,A*1A
$GNACCURACY,2.9*1D
$GNGGA,053932.000,4731.9814,N,01902.5915,E,1,9,0.96,112.9,M,41.1,M,,*42
$GPGSA,A,3,25,31,21,29,26,02,12,,,,,,1.26,0.96,0.82*0A
$GLGSA,A,3,82,83,,,,,,,,,,,1.26,0.96,0.82*1F
$GPGSV,3,1,10,29,81,005,41.5,25,56,122,33.7,31,49,266,24.2,21,30,198,32.8*7F
$GPGSV,3,2,10,26,27,303,35.9,02,24,048,35.3,05,20,085,34.5,12,15,119,30.1*7E
$GPGSV,3,3,10,23,01,340,,16,01,300,*7A
$GLGSV,4,1,13,78,64,299,,82,62,030,33.8,80,59,176,,83,58,244,14.4*69
$GLGSV,4,2,13,73,52,315,31.4,77,51,178,,79,26,326,,81,13,046,30.8*66
$GLGSV,4,3,13,66,09,055,,65,06,000,,70,06,000,,74,05,329,*63
$GLGSV,4,4,13,84,04,231,*5F
$GNRMC,053932.000,A,4731.9814,N,01902.5915,E,4.610,119.91,110918,,,A*4B
$GNVTG,119.91,T,,M,4.610,N,8.543,K,A*2B
$GNACCURACY,2.8*1C
$GNGGA,053933.000,4731.9805,N,01902.5928,E,1,9,0.97,112.2,M,41.1,M,,*47
$GPGSA,A,3,25,31,21,29,26,02,12,,,,,,1.74,0.97,1.44*07
$GLGSA,A,3,82,83,,,,,,,,,,,1.74,0.97,1.44*12
$GPGSV,3,1,10,29,81,005,39.9,25,56,122,33.5,31,49,266,23.6,21,30,198,31.7*71
$GPGSV,3,2,10,26,27,303,35.3,02,24,048,34.5,05,20,085,35.4,12,15,119,29.9*73
$GPGSV,3,3,10,23,01,340,,16,01,300,*7A
$GLGSV,4,1,13,78,64,299,,82,62,030,34.5,80,59,176,,83,58,244,14.4*63
$GLGSV,4,2,13,73,52,315,29.2,77,51,178,,79,26,326,,81,13,046,30.3*62
$GLGSV,4,3,13,66,09,055,,65,06,000,,70,06,000,,74,05,329,*63
$GLGSV,4,4,13,84,04,231,*5F
$GNRMC,053933.000,A,4731.9805,N,01902.5928,E,3.255,131.15,110918,,,A*40
$GNVTG,131.15,T,,M,3.255,N,6.032,K,A*22
$GNACCURACY,2.7*13
$GNGGA,053934.000,4731.9796,N,01902.5940,E,1,9,0.96,111.8,M,41.1,M,,*43
$GPGSA,A,3,25,31,21,29,26,02,12,,,,,,1.26,0.96,0.82*0A
$GLGSA,A,3,82,83,,,,,,,,,,,1.26,0.96,0.82*1F
$GPGSV,3,1,10,29,81,005,40.5,25,56,122,30.9,31,49,266,21.6,21,30,198,32.2*78
$GPGSV,3,2,10,26,27,303,28.8,02,24,048,39.5,05,20,085,35.9,12,15,119,35.0*70
$GPGSV,3,3,10,23,01,340,,16,01,300,*7A
$GLGSV,4,1,13,78,64,299,,82,62,030,34.5,80,59,176,16.3,83,58,244,11.8*70
$GLGSV,4,2,13,73,52,315,29.1,77,51,178,,79,26,326,,81,13,046,29.9*63
$GLGSV,4,3,13,66,09,055,,65,06,000,,70,06,000,,74,05,329,*63
$GLGSV,4,4,13,84,04,231,*5F
$GNRMC,053934.000,A,4731.9796,N,01902.5940,E,3.032,143.34,110918,,,A*49
$GNVTG,143.34,T,,M,3.032,N,5.618,K,A*2A
$GNACCURACY,2.6*12
$GNGGA,053935.000,4731.9791,N,01902.5946,E,1,9,0.96,112.2,M,41.1,M,,*4A
$GPGSA,A,3,25,31,21,29,26,02,12,,,,,,1.26,0.96,0.82*0A
$GLGSA,A,3,82,83,,,,,,,,,,,1.26,0.96,0.82*1F
$GPGSV,3,1,10,29,81,005,43.7,25,56,122,30.5,31,49,266,21.0,21,30,198,30.8*7B
$GPGSV,3,2,10,26,27,303,31.7,02,24,048,38.0,05,20,085,36.5,12,15,119,34.2*7F
$GPGSV,3,3,10,23,01,340,,16,01,300,*7A
$GLGSV,4,1,13,78,64,299,,82,62,030,35.3,80,59,176,16.2,83,58,244,11.8*76
$GLGSV,4,2,13,73,52,315,28.0,77,51,178,,79,26,326,,81,13,046,29.6*6C
$GLGSV,4,3,13,66,09,055,,65,06,000,,70,06,000,,74,05,329,*63
$GLGSV,4,4,13,84,04,231,*5F
$GNRMC,053935.000,A,4731.9791,N,01902.5946,E,2.282,142.83,110918,,,A*4C
$GNVTG,142.83,T,,M,2.282,N,4.228,K,A*29
$GNACCURACY,2.6*12
$GNGGA,053936.000,4731.9785,N,01902.5951,E,1,9,0.96,112.4,M,41.1,M,,*4C
$GPGSA,A,3,25,31,21,29,26,02,12,,,,,,1.26,0.96,0.82*0A
$GLGSA,A,3,82,83,,,,,,,,,,,1.26,0.96,0.82*1F
$GPGSV,3,1,10,29,81,005,43.8,25,56,122,34.8,31,49,266,20.6,21,30,198,29.8*72
$GPGSV,3,2,10,26,27,303,32.2,02,24,048,37.3,05,20,085,36.5,12,15,119,31.9*7B
$GPGSV,3,3,10,23,01,340,,16,01,300,*7A
$GLGSV,4,1,13,78,64,299,,82,62,030,35.6,80,59,176,,83,58,244,11.8*68
$GLGSV,4,2,13,73,52,315,26.4,77,51,178,,79,26,326,,81,13,046,32.6*6C
$GLGSV,4,3,13,66,09,055,,65,06,000,,70,06,000,,74,05,329,*63
$GLGSV,4,4,13,84,04,231,*5F
$GNRMC,053936.000,A,4731.9785,N,01902.5951,E,2.427,156.59,110918,,,A*47
$GNVTG,156.59,T,,M,2.427,N,4.497,K,A*20
$GNACCURACY,2.6*12
$GNGGA,053937.000,4731.9778,N,01902.5953,E,1,8,0.99,112.5,M,41.1,M,,*42
$GPGSA,A,3,25,31,21,29,26,02,12,,,,,,1.29,0.99,0.83*0B
$GLGSA,A,3,82,,,,,,,,,,,,1.29,0.99,0.83*15
$GPGSV,3,1,10,29,81,005,43.7,25,56,122,34.3,31,49,266,19.4,21,30,198,36.8*70
$GPGSV,3,2,10,26,27,303,32.5,02,24,048,37.9,05,20,085,35.2,12,15,119,29.4*76
$GPGSV,3,3,10,23,01,340,,16,01,300,*7A
$GLGSV,4,1,13,78,64,299,,82,62,030,35.0,80,59,176,,83,58,244,11.0*66
$GLGSV,4,2,13,73,52,315,,77,51,178,,79,26,326,,81,13,046,32.7*73
$GLGSV,4,3,13,66,09,055,,65,06,000,,70,06,000,,74,05,329,*63
$GLGSV,4,4,13,84,04,231,*5F
$GNRMC,053937.000,A,4731.9778,N,01902.5953,E,2.290,163.34,110918,,,A*41
$GNVTG,163.34,T,,M,2.290,N,4.244,K,A*2F
$GNACCURACY,2.6*12
$GNGGA,053938.000,4731.9772,N,01902.5954,E,1,9,0.96,112.5,M,41.1,M,,*4E
$GPGSA,A,3,25,31,21,29,26,02,12,,,,,,1.26,0.96,0.82*0A
$GLGSA,A,3,82,83,,,,,,,,,,,1.26,0.96,0.82*1F
$GPGSV,3,1,10,29,81,005,42.6,25,56,122,34.5,31,49,266,18.5,21,30,198,27.4*7A
$GPGSV,3,2,10,26,27,303,36.0,02,24,048,35.6,05,20,085,34.5,12,15,119,41.9*7F
$GPGSV,3,3,10,23,01,340,,16,01,300,*7A
$GLGSV,4,1,13,78,64,299,,82,62,030,34.3,80,59,176,,83,58,244,15.2*62
$GLGSV,4,2,13,73,52,315,,77,51,178,,79,26,326,,81,13,046,32.6*72
$GLGSV,4,3,13,66,09,055,,65,06,000,,70,06,000,,74,05,329,*63
$GLGSV,4,4,13,84,04,231,*5F
$GNRMC,053938.000,A,4731.9772,N,01902.5954,E,2.259,181.63,110918,,,A*48
$GNVTG,181.63,T,,M,2.259,N,4.187,K,A*28
$GNACCURACY,2.6*12
$GNGGA,053939.000,4731.9767,N,01902.5953,E,1,9,0.96,112.4,M,41.1,M,,*4D
$GPGSA,A,3,25,31,21,29,26,02,12,,,,,,1.26,0.96,0.82*0A
$GLGSA,A,3,82,83,,,,,,,,,,,1.26,0.96,0.82*1F
$GPGSV,3,1,10,29,81,005,41.5,25,56,122,35.2,31,49,266,17.9,21,30,198,25.2*7B
$GPGSV,3,2,10,26,27,303,34.8,02,24,048,34.1,05,20,085,33.5,12,15,119,40.9*75
$GPGSV,3,3,10,23,01,340,,16,01,300,*7A
$GLGSV,4,1,13,78,64,299,,82,62,030,35.0,80,59,176,,83,58,244,15.2*60
$GLGSV,4,2,13,73,52,315,,77,51,178,,79,26,326,,81,13,046,29.6*78
$GLGSV,4,3,13,66,09,055,,65,06,000,,70,06,000,,74,05,329,*63
$GLGSV,4,4,13,84,04,231,*5F
$GNRMC,053939.000,A,4731.9767,N,01902.5953,E,2.051,181.21,110918,,,A*46
$GNVTG,181.21,T,,M,2.051,N,3.800,K,A*25
$GNACCURACY,2.6*12
$GNGGA,053940.000,4731.9763,N,01902.5958,E,1,9,0.96,112.0,M,41.1,M,,*48
$GPGSA,A,3,25,31,21,29,26,02,12,,,,,,1.26,0.96,0.82*0A
$GLGSA,A,3,82,83,,,,,,,,,,,1.26,0.96,0.82*1F
$GPGSV,3,1,10,29,81,005,41.0,25,56,122,35.4,31,49,266,17.7,21,30,198,25.1*75
$GPGSV,3,2,10,26,27,303,32.9,02,24,048,34.3,05,20,085,34.4,12,15,119,39.7*76
$GPGSV,3,3,10,23,01,340,,16,01,300,*7A
$GLGSV,4,1,13,78,64,299,,82,62,030,35.1,80,59,176,,83,58,244,21.5*61
$GLGSV,4,2,13,73,52,315,,77,51,178,,79,26,326,,81,13,046,30.0*76
$GLGSV,4,3,13,66,09,055,,65,06,000,,70,06,000,,74,05,329,*63
$GLGSV,4,4,13,84,04,231,*5F
$GNRMC,053940.000,A,4731.9763,N,01902.5958,E,3.124,183.49,110918,,,A*49
$GNVTG,183.49,T,,M,3.124,N,5.789,K,A*23
$GNACCURACY,2.5*11
$GNGGA,053941.000,4731.9758,N,01902.5958,E,1,9,0.96,112.1,M,41.1,M,,*40
$GPGSA,A,3,25,31,21,29,26,02,12,,,,,,1.26,0.96,0.82*0A
$GLGSA,A,3,82,83,,,,,,,,,,,1.26,0.96,0.82*1F
$GPGSV,3,1,10,29,81,005,40.7,25,56,122,36.2,31,49,266,17.6,21,30,198,25.2*74
$GPGSV,3,2,10,26,27,303,31.2,02,24,048,33.8,05,20,085,34.7,12,15,119,36.7*7E
$GPGSV,3,3,10,23,01,340,,16,01,300,*7A
$GLGSV,4,1,13,78,64,299,,82,62,030,33.9,80,59,176,,83,58,244,21.5*6F
$GLGSV,4,2,13,73,52,315,,77,51,178,,79,26,326,,81,13,046,32.9*7D
$GLGSV,4,3,13,66,09,055,,65,06,000,,70,06,000,,74,05,329,*63
$GLGSV,4,4,13,84,04,231,*5F
$GNRMC,053941.000,A,4731.9758,N,01902.5958,E,2.631,176.41,110918,,,A*40
$GNVTG,176.41,T,,M,2.631,N,4.874,K,A*2F
$GNACCURACY,2.5*11
$GNGGA,053942.000,4731.9751,N,01902.5956,E,1,9,0.96,112.3,M,41.1,M,,*46
$GPGSA,A,3,25,31,21,29,26,02,12,,,,,,1.26,0.96,0.82*0A
$GLGSA,A,3,82,83,,,,,,,,,,,1.26,0.96,0.82*1F
$GPGSV,3,1,10,29,81,005,41.1,25,56,122,35.7,31,49,266,17.5,21,30,198,30.0*70
$GPGSV,3,2,10,26,27,303,26.3,02,24,048,33.5,05,20,085,38.2,12,15,119,27.2*78
$GPGSV,3,3,10,23,01,340,,16,01,300,*7A
$GLGSV,4,1,13,78,64,299,,82,62,030,32.7,80,59,176,,83,58,244,24.8*68
$GLGSV,4,2,13,73,52,315,,77,51,178,,79,26,326,,81,13,046,30.9*7F
$GLGSV,4,3,13,66,09,055,,65,06,000,,70,06,000,,74,05,329,*63
$GLGSV,4,4,13,84,04,231,*5F
$GNRMC,053942.000,A,4731.9751,N,01902.5956,E,2.401,199.80,110918,,,A*49
$GNVTG,199.80,T,,M,2.401,N,4.450,K,A*28
$GNACCURACY,2.5*11
$GNGGA,053943.000,4731.9748,N,01902.5952,E,1,9,0.96,112.3,M,41.1,M,,*4B
$GPGSA,A,3,25,31,21,29,26,02,12,,,,,,1.26,0.96,0.82*0A
$GLGSA,A,3,82,83,,,,,,,,,,,1.26,0.96,0.82*1F
$GPGSV,3,1,10,29,81,005,41.1,25,56,122,42.5,31,49,266,17.4,21,30,198,29.1*7A
$GPGSV,3,2,10,26,27,303,24.2,02,24,048,32.3,05,20,085,37.3,12,15,119,26.6*77
$GPGSV,3,3,10,23,01,340,,16,01,300,*7A
$GLGSV,4,1,13,78,64,299,,82,62,030,32.5,80,59,176,,83,58,244,25.5*66
$GLGSV,4,2,13,73,52,315,,77,51,178,,79,26,326,,81,13,046,27.7*77
$GLGSV,4,3,13,66,09,055,,65,06,000,,70,06,000,,74,05,329,*63
$GLGSV,4,4,13,84,04,231,*5F
$GNRMC,053943.000,A,4731.9748,N,01902.5952,E,2.263,209.75,110918,,,A*46
$GNVTG,209.75,T,,M,2.263,N,4.194,K,A*27
$GNACCURACY,2.5*11
$GNGGA,053944.000,4731.9744,N,01902.5949,E,1,9,0.96,112.5,M,41.1,M,,*4C
$GPGSA,A,3,25,31,21,29,26,02,12,,,,,,1.26,0.96,0.82*0A
$GLGSA,A,3,82,83,,,,,,,,,,,1.26,0.96,0.82*1F
$GPGSV,3,1,10,29,81,005,41.6,25,56,122,42.7,31,49,266,17.5,21,30,198,29.6*79
$GPGSV,3,2,10,26,27,303,22.3,02,24,048,31.3,05,20,085,37.0,12,15,119,26.8*7E
$GPGSV,3,3,10,23,01,340,,16,01,300,*7A
$GLGSV,4,1,13,78,64,299,,82,62,030,35.4,80,59,176,,83,58,244,25.0*65
$GLGSV,4,2,13,73,52,315,,77,51,178,,79,26,326,,81,13,046,27.7*77
$GLGSV,4,3,13,66,09,055,,65,06,000,,70,06,000,,74,05,329,*63
$GLGSV,4,4,13,84,04,231,*5F
$GNRMC,053944.000,A,4731.9744,N,01902.5949,E,2.113,196.04,110918,,,A*40
$GNVTG,196.04,T,,M,2.113,N,3.916,K,A*25
$GNACCURACY,2.5*11
$GNGGA,053945.000,4731.9743,N,01902.5948,E,1,9,0.96,112.6,M,41.1,M,,*48
$GPGSA,A,3,25,31,21,29,26,02,12,,,,,,1.26,0.96,0.82*0A
$GLGSA,A,3,82,83,,,,,,,,,,,1.26,0.96,0.82*1F
$GPGSV,3,1,10,29,81,005,41.4,25,56,122,42.6,31,49,266,17.8,21,30,198,28.4*74
$GPGSV,3,2,10,26,27,303,20.5,02,24,048,30.3,05,20,085,35.6,12,15,119,26.9*7E
$GPGSV,3,3,10,23,01,340,,16,01,300,*7A
$GLGSV,4,1,13,78,64,299,,82,62,030,35.2,80,59,176,,83,58,244,24.3*61
$GLGSV,4,2,13,73,52,315,,77,51,178,,79,26,326,,81,13,046,32.8*7C
$GLGSV,4,3,13,66,09,055,,65,06,000,,70,06,000,,74,05,329,*63
$GLGSV,4,4,13,84,04,231,*5F
$GNRMC,053945.000,A,4731.9743,N,01902.5948,E,1.908,190.97,110918,,,A*4A
$GNVTG,190.97,T,,M,1.908,N,3.536,K,A*26
$GNACCURACY,2.5*11
$GNGGA,053946.000,4731.9745,N,01902.5945,E,1,9,0.96,112.5,M,41.1,M,,*43
$GPGSA,A,3,25,31,21,29,26,02,12,,,,,,1.26,0.96,0.82*0A
$GLGSA,A,3,82,83,,,,,,,,,,,1.26,0.96,0.82*1F
$GPGSV,3,1,10,29,81,005,41.4,25,56,122,42.3,31,49,266,17.8,21,30,198,26.6*7D
$GPGSV,3,2,10,26,27,303,19.4,02,24,048,28.3,05,20,085,35.0,12,15,119,27.0*72
$GPGSV,3,3,10,23,01,340,,16,01,300,*7A
$GLGSV,4,1,13,78,64,299,,82,62,030,34.6,80,59,176,,83,58,244,24.3*64
$GLGSV,4,2,13,73,52,315,,77,51,178,,79,26,326,,81,13,046,31.7*70
$GLGSV,4,3,13,66,09,055,,65,06,000,,70,06,000,,74,05,329,*63
$GLGSV,4,4,13,84,04,231,*5F
$GNRMC,053946.000,A,4731.9745,N,01902.5945,E,1.693,326.57,110918,,,A*4C
$GNVTG,326.57,T,,M,1.693,N,3.137,K,A*2D
$GNACCURACY,2.5*11
$GNGGA,053947.000,4731.9745,N,01902.5942,E,1,9,0.96,112.4,M,41.1,M,,*44
$GPGSA,A,3,25,31,21,29,26,02,12,,,,,,1.26,0.96,0.82*0A
$GLGSA,A,3,82,83,,,,,,,,,,,1.26,0.96,0.82*1F
$GPGSV,3,1,10,29,81,005,41.9,25,56,122,42.6,31,49,266,18.1,21,30,198,25.2*74
$GPGSV,3,2,10,26,27,303,18.6,02,24,048,31.8,05,20,085,34.5,12,15,119,27.2*74
$GPGSV,3,3,10,23,01,340,,16,01,300,*7A
$GLGSV,4,1,13,78,64,299,,82,62,030,34.4,80,59,176,,83,58,244,24.9*6C
$GLGSV,4,2,13,73,52,315,,77,51,178,,79,26,326,,81,13,046,31.0*77
$GLGSV,4,3,13,66,09,055,,65,06,000,,70,06,000,,74,05,329,*63
$GLGSV,4,4,13,84,04,231,*5F
$GNRMC,053947.000,A,4731.9745,N,01902.5942,E,1.521,262.41,110918,,,A*46
$GNVTG,262.41,T,,M,1.521,N,2.818,K,A*24
$GNACCURACY,2.6*12
$GNGGA,053948.000,4731.9746,N,01902.5939,E,1,8,1.13,112.5,M,41.1,M,,*48
$GPGSA,A,3,25,31,21,29,02,12,,,,,,,1.43,1.13,0.88*0B
$GLGSA,A,3,82,83,,,,,,,,,,,1.43,1.13,0.88*1A
